stop_id,stop_code,stop_name,stop_desc,stop_lat,stop_lon,zone_id,stop_url,location_type,parent_station,stop_timezone,wheelchair_boarding
5710AWA10152,,"Abergele Road",,51.5181909,-3.107866827,,,,,,
5710AWA10197,,"Abergele Road",,51.518128862,-3.112520553,,,,,,
5710AWA10198,,"Abergele Road",,51.517878516,-3.112370327,,,,,,
5710AWA11154,,"Aberporth Road",,51.50448163,-3.219010745,,,,,,
5710AWA11160,,"Aberporth Road",,51.501962553,-3.206970881,,,,,,
5720WDB47297,,"Adams Funeral Home",,51.403383481,-3.274890128,,,,,,
5710AWA10817,,"Adamsdown Square",,51.481926216,-3.162106635,,,,,,
5720VGA02598,,"Adar y mor",,51.393012572,-3.269369873,,,,,,
5710AWA11642,,"Adelaide Street",,51.464024719,-3.168495342,,,,,,
5710AWA11643,,"Adelaide Street",,51.463815318,-3.168502228,,,,,,
5710AWA11188,,"Ael y Bryn",,51.524358145,-3.26027724,,,,,,
5710AWA11189,,"Ael y Bryn",,51.524403561,-3.260033878,,,,,,
5710AWA10279,,"Ael y Bryn",,51.509464185,-3.158593627,,,,,,
5710AWA10278,,"Ael y Bryn",,51.509430077,-3.158405435,,,,,,
5720AWA11796,,"Aeron Close",,51.406069735,-3.286624933,,,,,,
5720WDB48423,,"Albert Road",,51.439100026,-3.173299998,,,,,,
5720AWA11987,,"Albert Road",,51.439749518,-3.172194536,,,,,,
5720WDB48422,,"Albert Road",,51.439452925,-3.173078983,,,,,,
5720AWA11986,,"Albert Road",,51.439546639,-3.17180087,,,,,,
5710AWA11469,,"Albert Street",,51.481511218,-3.200324724,,,,,,
5710AWA11468,,"Albert Street",,51.48137328,-3.199745062,,,,,,
5720CBX02464,,"Alberta Road",,51.42943936,-3.171829912,,,,,,
5710AWA10546,,"Alder Road",,51.499244967,-3.170810512,,,,,,
5710AWA10334,,Aldi,,51.529187137,-3.151814254,,,,,,
5710AWA10333,,Aldi,,51.529311151,-3.152004793,,,,,,
5720AWA11849,,"Alexandra Gardens",,51.404609979,-3.283622301,,,,,,
5720AWA11850,,"Alexandra Gardens",,51.404932792,-3.282883734,,,,,,
5710AWA10253,,"Alfred Street",,51.493681877,-3.167815789,,,,,,
5720AWA11806,,"All Saints",,51.398457618,-3.288696917,,,,,,
5720AWA10727,,Alps,,51.458271743,-3.26653067,,,,,,
5720AWA11800,,"Alwen Drive",,51.408349608,-3.293532935,,,,,,
5710AWA10632,,"Amesbury Road",,51.496581852,-3.156466167,,,,,,
5710AWA11611,,"Amherst Street",,51.463150886,-3.181618448,,,,,,
5710AWA11569,,"Amroth Road",,51.478141057,-3.242442624,,,,,,
5710AWA11515,,"Amroth Road",,51.477985049,-3.241041587,,,,,,
5720AWA11699,,"Andover Close",,51.416529019,-3.294655464,,,,,,
5720AWA12389,,"Andrew Road",,51.444992669,-3.193495802,,,,,,
5720AWA12388,,"Andrew Road",,51.445151936,-3.192866814,,,,,,
5710AWA10910,,"Angle Place",,51.532723542,-3.199984776,,,,,,
5710AWA10909,,"Angle Place",,51.532477877,-3.200266657,,,,,,
5710AWA10261,,"Angus Street",,51.49376426,-3.16676634,,,,,,
5710AWA10262,,"Arabella Street",,51.492959297,-3.169943606,,,,,,
5710AWA10251,,"Arabella Street",,51.492805113,-3.170976786,,,,,,
5710AWA11073,,"Ararat Church",,51.509751521,-3.211139491,,,,,,
5710AWA11074,,"Ararat Church",,51.50978429,-3.210578372,,,,,,
5710AWA11550,,"Archer Road",,51.481426274,-3.255651293,,,,,,
5710AWA11555,,"Archer Terrace",,51.483068993,-3.246603837,,,,,,
5710AWA10098,,"Arnold Ave",,51.529151942,-3.120170265,,,,,,
5710AWA10099,,"Arnold Ave",,51.528924536,-3.120622388,,,,,,
5720AWA10398,,"Arnold House",,51.424677822,-3.218151283,,,,,,
5720AWM26314,,"Arnold House",,51.424828701,-3.218342278,,,,,,
5720WDB48437,,Asda,,51.397367384,-3.279049604,,,,,,
5720WDB48432,,Asda,,51.398001349,-3.278709932,,,,,,
5710AWA10766,,"Asgog Street",,51.480654085,-3.156783181,,,,,,
5720AWA10010,,"Ash Grove",,51.416825607,-3.249105537,,,,,,
5710AWA11199,,"Ash Tree Close",,51.519048962,-3.266486761,,,,,,
5710AWA11395,,"Ashcroft Cres",,51.49683048,-3.254720495,,,,,,
5710AWA11396,,"Ashcroft Crescent",,51.496941587,-3.254421022,,,,,,
5710CBZ02545,,"Avondale Gardens",,51.464230202,-3.178911174,,,,,,
5710CBZ02544,,"Avondale Gardens",,51.464333719,-3.178453183,,,,,,
5710AWA11639,,"Avondale Road",,51.465934397,-3.176651727,,,,,,
5710AWA11638,,"Avondale Road",,51.465860601,-3.176836978,,,,,,
5710AWA11156,,"Bacton Road",,51.50193531,-3.215701098,,,,,,
5310AWB30437,,Bakery,,51.58298917,-2.992013047,,,,,,
5710AWA10111,,"Ball Road/Ball Lane",,51.519438845,-3.132543184,,,,,,
5710AWA10110,,"Ball Road/Ball Lane",,51.519049088,-3.132865008,,,,,,
5710AWA10351,,"Baltimore Close",,51.535643023,-3.13523789,,,,,,
5710AWA11554,,"Baptist Church",,51.481702172,-3.250028019,,,,,,
5710AWA11553,,"Baptist Church",,51.482188672,-3.249940515,,,,,,
5710AWA10677,,"Baptist Church",,51.528383093,-3.184690779,,,,,,
5720CBZ02517,,"Baron Road",,51.434605536,-3.183105721,,,,,,
5720AWA11789,,"Barons Court",,51.448501931,-3.190608461,,,,,,
5720AWA11788,,"Barons Court",,51.449122797,-3.190567051,,,,,,
5710AWA10231,,"Baron's Court Rd",,51.497895037,-3.153690213,,,,,,
5710WDB48477,,Barrage,,51.445147867,-3.168274937,,,,,,
5720AWM26283,,"Barrians Way",,51.408303875,-3.280505064,,,,,,
5720AWA11910,,"Barry (King Square)",,51.406831576,-3.267049585,,,,,,
5720AWA11911,,"Barry (King Square)",,51.406687901,-3.267031235,,,,,,
5720WDB46646,,"Barry (Tynewydd Road)",,51.407294828,-3.267450592,,,,,,
5720WDB21702,,"Barry (Wyndham Street)",,51.407423502,-3.266361436,,,,,,
5720AWA11917,,"Barry Civic Offices 1",,51.403285841,-3.273119099,,,,,,
5720AWA11918,,"Barry Civic Offices 2",,51.403309217,-3.273450408,,,,,,
5720AWA11889,,"Barry College",,51.410869241,-3.283553186,,,,,,
5720AWA11728,,"Barry College",,51.409388343,-3.282476458,,,,,,
5720AWA11887,,"Barry Hospital",,51.414289914,-3.283217611,,,,,,
5720AWA11735,,"Barry Hotel",,51.398290317,-3.284279095,,,,,,
5720AWA11734,,"Barry Hotel",,51.398178821,-3.284606595,,,,,,
5720AWA11821,,"Barry Island (Marine Hotel)",,51.393564106,-3.267430349,,,,,,
5720WDB23568,,"Barry Island Stn Approach",,51.39201479,-3.27513457,,,,,,
5720AWA11750,,"Barry Kwik Fit",,51.409452047,-3.26336926,,,,,,
5720AWA11749,,"Barry Kwik Fit",,51.409822473,-3.263206929,,,,,,
5720CBX02470,,"Barry Morrisons",,51.400933025,-3.27200432,,,,,,
5720AWA11875,,"Barry Rugby Club",,51.421803838,-3.271159953,,,,,,
5720AWA11876,,"Barry Rugby Club",,51.422000044,-3.271309222,,,,,,
5710AWA11239,,"BBC Studios",,51.497033421,-3.226187832,,,,,,
5710AWA11238,,"BBC Studios",,51.49705135,-3.227052671,,,,,,
5710AWA11683,,"Beauchamp Street",,51.476669067,-3.186633253,,,,,,
5710AWA10784,,"Beckgrove Close",,51.491011979,-3.132918747,,,,,,
5710AWA10783,,"Beckgrove Close",,51.49124599,-3.132895741,,,,,,
5710AWA11324,,"Beda Rd",,51.479448839,-3.207643567,,,,,,
5710AWA11323,,"Beda Rd",,51.479375642,-3.206892814,,,,,,
5720AWA11794,,"Bedlington Terrace",,51.404609049,-3.286166997,,,,,,
5710AWM26348,,"Beechley Drive",,51.493317543,-3.252765797,,,,,,
5710AWA11397,,"Beechley Drive",,51.496790651,-3.252558514,,,,,,
5710AWA11392,,"Beechley Drive",,51.49322688,-3.252835335,,,,,,
5720AWA12047,,"Beechwood Drive",,51.428048719,-3.189371814,,,,,,
5310AWB30507,,"Belle Vue Park",,51.578832268,-2.997524985,,,,,,
5310AWB30506,,"Belle Vue Park",,51.578175191,-2.999718592,,,,,,
5720AWA12027,,Bendricks,,51.401193851,-3.244366783,,,,,,
5720AWA12028,,Bendricks,,51.401282066,-3.244527313,,,,,,
5310AWB31066,,"Berryhill Farm",,51.552528099,-3.05746937,,,,,,
5310AWB31065,,"Berryhill Farm",,51.553069024,-3.056313616,,,,,,
5710AWA10668,,"Berrymead Rd",,51.522419411,-3.175066033,,,,,,
5710AWA11776,,"Berthwin Street",,51.488073998,-3.198696712,,,,,,
5710AWA11775,,"Berthwin Street",,51.487664454,-3.198297089,,,,,,
5710AWA11280,,"Bessemer Road",,51.467058912,-3.199332353,,,,,,
5710AWM26284,,"Bessemer Road",,51.466932413,-3.199726089,,,,,,
5710AWA11580,,"Bessemer Road",,51.470572842,-3.197215638,,,,,,
5710AWA11774,,"Beverley Hotel",,51.485615473,-3.194657185,,,,,,
5710AWA11773,,"Beverley Hotel",,51.485265425,-3.193711891,,,,,,
5710AWA10087,,"Bideford Road",,51.516599812,-3.123883186,,,,,,
5710WDB25114,,"Bideford Road",,51.519178458,-3.119392223,,,,,,
5710AWA10856,,Birchgrove,,51.511119816,-3.199618663,,,,,,
5710AWA10854,,Birchgrove,,51.510650152,-3.199822477,,,,,,
5710AWA11078,,"Birchgrove Road",,51.510247636,-3.203126223,,,,,,
5710AWA11079,,"Birchgrove Road",,51.510159219,-3.202979792,,,,,,
5710AWA11394,,"Bishop Hannon Drive",,51.496592096,-3.257667148,,,,,,
5710AWA11332,,"Bishops Walk",,51.489377282,-3.226862719,,,,,,
5710AWA11242,,"Black Lion",,51.493664657,-3.219845694,,,,,,
5710AWA11241,,"Black Lion",,51.493759195,-3.220265961,,,,,,
5710AWA10840,,Blackweir,,51.493402686,-3.18932936,,,,,,
5710AWA10841,,Blackweir,,51.493577947,-3.189780471,,,,,,
5710AWA10633,,"Blenheim Road",,51.496786057,-3.156730641,,,,,,
5710AWA11227,,"Blethin Close",,51.504495752,-3.239110722,,,,,,
5710AWA10095,,"Bluebell Drive",,51.527906056,-3.116925007,,,,,,
5710AWA10096,,"Bluebell Drive",,51.528447085,-3.116765261,,,,,,
5710AWA10065,,"Bluebell Inn",,51.525998322,-3.111400626,,,,,,
5710AWA10074,,"Bluebell Inn",,51.525029977,-3.112369925,,,,,,
5710AWA11155,,"Boncath Road",,51.502620071,-3.219033098,,,,,,
5710AWA10547,,"Boverton St",,51.499126808,-3.170937142,,,,,,
5710AWA11560,,"Bowling Green",,51.484351816,-3.240148718,,,,,,
5710AWA11559,,"Bowling Green",,51.48417721,-3.240504028,,,,,,
5710AWA10130,,"Brachdy Lane",,51.5020385,-3.129864114,,,,,,
5710AWA10129,,"Brachdy Lane",,51.501916359,-3.130408573,,,,,,
5710CBZ02501,,"Bracken Place",,51.498193798,-3.245768377,,,,,,
5710CBZ02502,,"Bracken Place",,51.498123107,-3.245651199,,,,,,
5720AWA12396,,"Bramble Rise",,51.442312392,-3.189138085,,,,,,
5720AWA12403,,"Bramble Rise",,51.442686985,-3.194745062,,,,,,
5720AWA12400,,"Bramble Rise",,51.442536361,-3.194525299,,,,,,
5720WDB48370,,"Brewers Fayre",,51.399264291,-3.276615606,,,,,,
5710AWA11249,,"Bridge Road",,51.498370479,-3.225589841,,,,,,
5710AWA11784,,"Brindley Road",,51.458462614,-3.197906239,,,,,,
5710AWA11785,,"Brindley Road",,51.458260725,-3.198303976,,,,,,
5710WDB25134,,Brodeg,,51.528090919,-3.297284847,,,,,,
5710WDB48415,,"Bromley Drive",,51.476889865,-3.240018281,,,,,,
5710AWA11594,,"Bromsgrove Street",,51.465178739,-3.187386001,,,,,,
5710AWA11595,,"Bromsgrove Street",,51.464734506,-3.186856221,,,,,,
5710AWA14484,,Bronllwyn,,51.527153701,-3.300717936,,,,,,
5710AWA10268,,"Bronwydd Avenue",,51.500033125,-3.161178135,,,,,,
5720AWA12730,,"Brooklands Terrace",,51.464150223,-3.27089698,,,,,,
5720WDB48418,,Brookside,,51.436796412,-3.209726422,,,,,,
5720WDB48417,,Brookside,,51.436877318,-3.209728559,,,,,,
5720AWA10022,,"Browns Corner",,51.412597695,-3.256827068,,,,,,
5720AWA10020,,"Browns Corner",,51.413177999,-3.257216855,,,,,,
5710AWA11688,,"Brunel Street",,51.477059844,-3.19066089,,,,,,
5310AWA10071,,"Bryn Hafren",,51.539424469,-3.089204947,,,,,,
5710AWA10144,,"Brynbala Way",,51.515229981,-3.11099434,,,,,,
5710AWA10143,,"Brynbala Way",,51.514940944,-3.11113142,,,,,,
5710AWA10322,,Brynfedw,,51.51561573,-3.152091516,,,,,,
5720AWA10746,,"Brynhill Golf Club",,51.419500578,-3.283651199,,,,,,
5720AWA10397,,Bryn-y-Don,,51.428552613,-3.218225581,,,,,,
5720AWA11703,,"Buckingham Place",,51.419072961,-3.289837644,,,,,,
5710AWA10340,,Bupa,,51.530347399,-3.141665578,,,,,,
5710AWA10342,,Bupa,,51.530408629,-3.140917457,,,,,,
5710AWA11229,,"Burne Jones Close",,51.502330932,-3.236343353,,,,,,
5710AWA11228,,"Burne Jones Close",,51.502471876,-3.236620914,,,,,,
5720WDB48389,,"Burnham Avenue",,51.405768445,-3.214600662,,,,,,
5710AWA11579,,"Bus Depot",,51.472119222,-3.198998295,,,,,,
5710AWA11578,,"Bus Depot",,51.472485585,-3.199223875,,,,,,
5710WDB47540,,"Bute Terrace",,51.477530964,-3.173364649,,,,,,
5710WDB48517,,"Bute Terrace, Radisson Blu",,51.477480157,-3.173050439,,,,,,
5720AWA11853,,"Butt Lee Court",,51.406613781,-3.276345854,,,,,,
5720AWA12663,,"Buttrills Hill",,51.409302867,-3.27877881,,,,,,
5720AWA12043,,"Byrd Crescent",,51.424442853,-3.186717989,,,,,,
5720AWA11993,,"Byron Place",,51.438920773,-3.183971153,,,,,,
5720AWA10018,,"Cadoxton Royal",,51.414166276,-3.255619041,,,,,,
5720AWA10019,,"Cadoxton Royal",,51.414398306,-3.25578358,,,,,,
5710AWA11549,,"Cadvan Rd",,51.481533917,-3.257353581,,,,,,
5710AWA10215,,"Caeglas Rd",,51.504620134,-3.126959885,,,,,,
5710AWA10211,,"Caeglas Rd",,51.504830014,-3.126649954,,,,,,
5710AWA10214,,"Caeglas Road",,51.504426927,-3.126479647,,,,,,
5710AWA10477,,"Caer Cady Close",,51.512527642,-3.164320386,,,,,,
5710CBZ02496,,"Caer Graig",,51.524008184,-3.260209918,,,,,,
5710AWA11191,,"Caer Graig (Primary Sch)",,51.521812178,-3.26123032,,,,,,
5710AWA11028,,"Caer Wenallt North",,51.528778542,-3.226694718,,,,,,
5710AWA11029,,"Caer Wenallt North",,51.528116892,-3.227195899,,,,,,
5710AWA11038,,"Caer Wenallt South",,51.526658977,-3.229030682,,,,,,
5710AWA11039,,"Caer Wenallt South",,51.526153459,-3.22921888,,,,,,
5710AWA11480,,"Caerau Aldi",,51.480509811,-3.237826759,,,,,,
5710AWA10865,,"Caerphilly Crossroads",,51.524759593,-3.202341172,,,,,,
5710AWA10974,,"Caerphilly Road",,51.519587009,-3.19904846,,,,,,
5710AWA10973,,"Caerphilly Road",,51.519479135,-3.199045627,,,,,,
5710WDB48462,,"Caerphilly Road Aldi",,51.517633781,-3.201000482,,,,,,
5710CAA02619,,"Caerphilly Road Lidl",,51.519924173,-3.201248116,,,,,,
5710AWA11317,,"Caewel Road",,51.491022025,-3.219680796,,,,,,
5710AWA11333,,"Caewel Road",,51.4910297,-3.22074042,,,,,,
5710AWA10778,,"Cairnmuir Road",,51.487925249,-3.140366771,,,,,,
5710AWA10777,,"Cairnmuir Road",,51.488006363,-3.140578647,,,,,,
5720AWA11698,,"Cambourne Close",,51.416205096,-3.292230368,,,,,,
5710AWA11522,,"Cambria Road",,51.471497132,-3.261699307,,,,,,
5710AWA11637,,"Cambridge Street",,51.466630139,-3.179001832,,,,,,
5710AWA11371,,"Camellia Court",,51.500943194,-3.245123002,,,,,,
5710AWA10906,,"Camelot Way",,51.539432307,-3.205164764,,,,,,
5710AWA10905,,"Camelot Way",,51.539291142,-3.204901488,,,,,,
5710AWA10774,,"Cameron Street",,51.485619443,-3.147446564,,,,,,
5710WDB47952,,"Canal Street",,51.477574424,-3.175309733,,,,,,
5710AWA11519,,"Canaston Place",,51.472671406,-3.240983743,,,,,,
5710AWA11470,,"Canton Chapter Arts Centre",,51.481730798,-3.20316722,,,,,,
5710AWA11471,,"Canton Chapter Arts Centre",,51.481885196,-3.203315584,,,,,,
5710WDB48388,,"Capital Business Park",,51.502939955,-3.106609916,,,,,,
5710WDB48569,,"Capital Business Park",,51.502320036,-3.107459922,,,,,,
5710AWA11602,,"Cardiff Bay Asda",,51.456922356,-3.184005176,,,,,,
5710AWA11601,,"Cardiff Bay Asda",,51.457517971,-3.184682691,,,,,,
5710AWA11671,,"Cardiff Bay Station",,51.467204526,-3.166627591,,,,,,
5710AWA11670,,"Cardiff Bay Station",,51.467469565,-3.167002328,,,,,,
5710CBZ02481,,"Cardiff Bay Station",,51.466507875,-3.165149462,,,,,,
5710AWL26191,,"Cardiff Bridge",,51.480914694,-3.184712951,,,,,,
5710AWM26241,,"Cardiff Bridge KQ",,51.480917167,-3.184468201,,,,,,
5710WDB48559,,"Cardiff Bus Interchange",,51.476726314,-3.178283025,,,,,,
5710WDB48561,,"Cardiff Bus Interchange",,51.47663743,-3.178179938,,,,,,
5710WDB48557,,"Cardiff Bus Interchange",,51.476833755,-3.178328993,,,,,,
5710WDB48556,,"Cardiff Bus Interchange",,51.476905237,-3.178374034,,,,,,
5710WDB48555,,"Cardiff Bus Interchange",,51.476949751,-3.17841838,,,,,,
5710WDB48563,,"Cardiff Bus Interchange",,51.476556958,-3.178134666,,,,,,
5710WDB48552,,"Cardiff Bus Interchange",,51.477092572,-3.178522859,,,,,,
5710WDB48551,,"Cardiff Bus Interchange",,51.47713723,-3.178552809,,,,,,
5710WDB48562,,"Cardiff Bus Interchange",,51.476592772,-3.178149988,,,,,,
5710WDB48553,,"Cardiff Bus Interchange",,51.477047913,-3.178492908,,,,,,
5710WDB48554,,"Cardiff Bus Interchange",,51.47699441,-3.17844833,,,,,,
5710WDB48560,,"Cardiff Bus Interchange",,51.476691079,-3.178210119,,,,,,
5710WDB48558,,"Cardiff Bus Interchange",,51.476770972,-3.178312975,,,,,,
5710AWA10564,,"Cardiff High School",,51.516814773,-3.176233264,,,,,,
5710AWA10563,,"Cardiff High School",,51.516830729,-3.176435446,,,,,,
5710WDB21924,,"Cardiff Ice Rink",,51.449591941,-3.182097362,,,,,,
5710CAA02558,,"Cardiff Met Cyncoed",,51.510470198,-3.162336965,,,,,,
5710AWA11335,,"Cardiff Met Llandaff",,51.494828709,-3.212515692,,,,,,
5710AWA11334,,"Cardiff Road",,51.492164115,-3.216276551,,,,,,
5710AWA10469,,"Carisbrooke Way",,51.507052579,-3.160592935,,,,,,
5710WDB25414,,"Carisbrooke Way",,51.507134483,-3.160494153,,,,,,
5710AWA10059,,"Carpenters Arms",,51.508064333,-3.133457033,,,,,,
5710AWA10123,,"Carpenters Arms",,51.507977081,-3.13318109,,,,,,
5710AWA11377,,"Carter Place",,51.497560849,-3.239311569,,,,,,
5710WDB48538,,Cartref,,51.508651128,-3.173443656,,,,,,
5710AWA10057,,"Castle Avenue",,51.502211972,-3.138887491,,,,,,
5720AWA12039,,"Castle Avenue",,51.425160247,-3.180681211,,,,,,
5710AWA11351,,"Castle Hill Court (NE)",,51.485543341,-3.269129816,,,,,,
5710WDB23807,,"Castle Hill Court (SW)",,51.485338961,-3.269220492,,,,,,
5710WDB48531,,"Castle Street",,51.480954911,-3.182510665,,,,,,
5710AWA10209,,"Castlefield Centre (Caeglas Rd)",,51.507036428,-3.124411485,,,,,,
5310AWB31071,,"Castleton (Coach & Horses)",,51.545361378,-3.079223158,,,,,,
5310AWA10070,,"Castleton (Post Office)",,51.544284958,-3.07991872,,,,,,
5710AWA10972,,"Cathays High School",,51.49791935,-3.192601906,,,,,,
5710AWA11769,,"Cathedral Road",,51.482009429,-3.189378505,,,,,,
5710AWA11770,,"Cathedral Road",,51.482398395,-3.190036685,,,,,,
5720AWA12373,,"Cedar Way",,51.431997517,-3.191013623,,,,,,
5720AWA12375,,"Cedar Way",,51.433833079,-3.191780671,,,,,,
5710AWA10474,,"Cefn Coed Crescent",,51.508145536,-3.165534314,,,,,,
5710AWA10475,,"Cefn Coed Road",,51.508635698,-3.16507131,,,,,,
5720AWA12344,,"Cefn Mably",,51.432535606,-3.185834413,,,,,,
5720AWA12343,,"Cefn Mably",,51.431827864,-3.186463426,,,,,,
5720AWA11992,,"Ceiriog Close",,51.439012268,-3.183815255,,,,,,
5710AWA10850,,"Celtic Road",,51.506154389,-3.199382608,,,,,,
5310AWB31061,,"Celtic Way",,51.557211761,-3.039474936,,,,,,
5310AWB31062,,"Celtic Way",,51.557051732,-3.039269341,,,,,,
5710CAA02570,,"Celyn Avenue",,51.51664688,-3.173245637,,,,,,
5710AWA10479,,"Celyn Avenue",,51.514053317,-3.163710788,,,,,,
5710CAA02569,,"Celyn Avenue",,51.516403386,-3.172417894,,,,,,
5710AWA10478,,"Celyn Avenue",,51.514276198,-3.163903816,,,,,,
5710AWA10567,,"Celyn Avenue",,51.515895063,-3.175589858,,,,,,
5710AWA10148,,"Cemaes Crescent",,51.515029908,-3.10742983,,,,,,
5710AWA10149,,"Cemaes Way",,51.515045291,-3.106752862,,,,,,
5710AWA14487,,Cemetery,,51.530488296,-3.300034498,,,,,,
5710AWA10588,,"Cemetery Gates",,51.506593121,-3.183174428,,,,,,
5710AWA10589,,"Cemetery Gates",,51.506304745,-3.183112635,,,,,,
5710AWA10690,,Cenotaph,,51.539692162,-3.167017952,,,,,,
5710AWA10691,,Cenotaph,,51.539658068,-3.166829629,,,,,,
5710AWA11605,,"Channel View Flats",,51.458834416,-3.182543308,,,,,,
5710AWA11604,,"Channel View Road",,51.459788461,-3.183345256,,,,,,
5710AWA11603,,"Channel View Road (Beecher Ave.)",,51.460334503,-3.183589692,,,,,,
5710AWA11606,,"Channel View Turn",,51.457916032,-3.181771101,,,,,,
5710AWA11415,,"Chargot Rd",,51.486576437,-3.216631925,,,,,,
5710AWA11414,,"Chargot Rd",,51.486506165,-3.216471625,,,,,,
5710AWA11538,,"Charteris Green",,51.481706464,-3.243706031,,,,,,
5710AWA11557,,"Charteris Rd",,51.483717486,-3.244005585,,,,,,
5710AWA11558,,"Charteris Rd",,51.48362912,-3.243859162,,,,,,
5710AWA10686,,"Chartwell Drive",,51.535599992,-3.173415813,,,,,,
5710AWA10687,,"Chartwell Drive",,51.53575714,-3.172987312,,,,,,
5720AWA11879,,"Chaucer Road",,51.420769005,-3.274539775,,,,,,
5710AWA10088,,"Cheddar Crescent",,51.516887482,-3.123890269,,,,,,
5710WDB23369,,"Cherry Orchard Road",,51.544440035,-3.182209972,,,,,,
5710AWA11563,,"Cherrydale Road",,51.48418733,-3.23614052,,,,,,
5710AWA10528,,"Childrens Unit",,51.507587102,-3.188214885,,,,,,
5710AWA11213,,"Christ Church",,51.513274673,-3.25070492,,,,,,
5710WDB25400,,"Christ Church",,51.513873575,-3.251038376,,,,,,
5710AWA10915,,"Christ the King",,51.532678113,-3.190324075,,,,,,
5710AWA11664,,"Christina Street",,51.472234583,-3.170680267,,,,,,
5710AWA10924,,Church,,51.530232614,-3.18940971,,,,,,
5710AWA10692,,Church,,51.540766602,-3.167478034,,,,,,
5710AWA10693,,Church,,51.540746183,-3.167722646,,,,,,
5720AWA10011,,"Church Hill",,51.415567441,-3.252407478,,,,,,
5710AWA10925,,"Church Inn",,51.528884702,-3.1902107,,,,,,
5710AWA10926,,"Church Inn",,51.529075674,-3.189999441,,,,,,
5720AWA11981,,"Church Place South",,51.440993099,-3.167420706,,,,,,
5710AWA11257,,"Church Road",,51.509577405,-3.228122569,,,,,,
5710WDB48543,,"Church Road 2",,51.533867166,-3.122163189,,,,,,
5720AWA10418,,Churchfields,,51.419348039,-3.255401525,,,,,,
5710WDB47953,,"Churchill Way",,51.48068389,-3.171890303,,,,,,
5710WDB47954,,"Churchill Way",,51.480861955,-3.172067678,,,,,,
5710WDB47955,,"Churchill Way",,51.481040164,-3.172230657,,,,,,
5710CBX16390,,"Churchill Way",,51.481245053,-3.172423124,,,,,,
5710AWA11587,,"City Gardens",,51.46915581,-3.195090953,,,,,,
5710AWA10222,,"City Link",,51.493294858,-3.145060878,,,,,,
5710AWA10054,,"City Link",,51.492913335,-3.146376537,,,,,,
5710AWA11627,,"Clare Road",,51.473594587,-3.187446166,,,,,,
5710AWA11629,,"Clare Road",,51.474614636,-3.187055092,,,,,,
5710AWA11628,,"Clare Road",,51.474181679,-3.187187838,,,,,,
5710AWA10122,,"Claremont Crescent",,51.510638512,-3.128535024,,,,,,
5710AWA10254,,"Claude Hotel",,51.493711998,-3.162069028,,,,,,
5710AWA10260,,"Claude Hotel",,51.493517508,-3.161732771,,,,,,
5310AWB31058,,"Cleppa Park",,51.562486594,-3.034762387,,,,,,
5310AWB31059,,"Cleppa Park",,51.562033409,-3.03517046,,,,,,
5710AWA10090,,"Clevedon Court",,51.519012457,-3.121708608,,,,,,
5710AWA10089,,"Clevedon Court",,51.519236924,-3.12174295,,,,,,
5720AWA12338,,"Cliff Walk",,51.429697028,-3.170340497,,,,,,
5720AWA11983,,"Clive Crescent",,51.44006583,-3.168432991,,,,,,
5720AWA11982,,"Clive Crescent",,51.440267904,-3.168006508,,,,,,
5720AWA11985,,"Clive Place",,51.439624514,-3.17030653,,,,,,
5720AWA11984,,"Clive Place",,51.439558628,-3.169700558,,,,,,
5710AWA11443,,"Clive Rd",,51.485897855,-3.212696397,,,,,,
5710AWA11475,,"Clive Road",,51.482539068,-3.212290449,,,,,,
5710AWA11474,,"Clive Road",,51.482643013,-3.211803558,,,,,,
5710AWA11597,,"Clive Street",,51.46277205,-3.186186308,,,,,,
5710AWA11590,,"Clive Street",,51.467802914,-3.188418715,,,,,,
5710AWA11204,,"Clos Brynmellyn",,51.519669324,-3.262324161,,,,,,
5710AWA10348,,"Clos Cwm Du",,51.535005848,-3.144362948,,,,,,
5710AWA10347,,"Clos Cwm Du",,51.534645147,-3.143546507,,,,,,
5710AWA10188,,"Clos Gwlad-Yr-Haf",,51.51865966,-3.09529597,,,,,,
5710AWA11260,,"Clos Newydd",,51.511084937,-3.228179113,,,,,,
5710AWA11259,,"Clos Newydd",,51.510825603,-3.228042444,,,,,,
5710AWA11449,,"Coed Arhyd",,51.474448523,-3.274811751,,,,,,
5710AWA11192,,"Coed Y Llyn",,51.52154063,-3.263067775,,,,,,
5710AWA11193,,"Coed Y Llyn",,51.521518305,-3.263470741,,,,,,
5710AWA10324,,"Coed -Y-Gores",,51.517607814,-3.151594122,,,,,,
5710AWA10325,,"Coed -Y-Gores",,51.517574402,-3.151333857,,,,,,
5720AWA12395,,"Cogan Hotel",,51.443305535,-3.187854488,,,,,,
5720AWA12394,,"Cogan Hotel",,51.443403546,-3.187943366,,,,,,
5720AWA12325,,"Cogan Leisure Centre",,51.444892226,-3.187449594,,,,,,
5720AWA12326,,"Cogan Leisure Centre",,51.444363047,-3.186428611,,,,,,
5710WDB25413,,"Colchester Avenue",,51.498886678,-3.157993977,,,,,,
5710AWA10233,,"Colchester Avenue",,51.497140166,-3.149983237,,,,,,
5710AWA10232,,"Colchester Avenue (Howardian Close)",,51.497498709,-3.15101509,,,,,,
5710AWA10055,,"Colchester Avenue Bottom",,51.496664447,-3.142537896,,,,,,
5710AWA10221,,"Colchester Avenue Bottom",,51.495872934,-3.142561317,,,,,,
5710WDB25395,,"Colchester Avenue Top",,51.49955396,-3.160532061,,,,,,
5720AWA11891,,"Colcot Arms",,51.417835032,-3.283834628,,,,,,
5720AWA11890,,"Colcot Sports Centre",,51.416829157,-3.28290045,,,,,,
5710AWA10159,,"Coleford Drive",,51.521421855,-3.100961469,,,,,,
5710AWA11479,,"Colin Way",,51.482671378,-3.234083318,,,,,,
5720AWA12664,,"College Inn",,51.409058585,-3.278915777,,,,,,
5720AWA11851,,"College Road",,51.407237475,-3.280992868,,,,,,
5720AWA11852,,"College Road",,51.407616158,-3.281722348,,,,,,
5710AWA11150,,"College Road",,51.509525601,-3.213856967,,,,,,
5710AWA11117,,"College Road RK",,51.486767801,-3.183885299,,,,,,
5710AWA11758,,"Collivaud Place",,51.475579228,-3.15712994,,,,,,
5710AWA10350,,"Community Centre",,51.536156667,-3.142531867,,,,,,
5710AWA10349,,"Community Centre",,51.535992888,-3.14272962,,,,,,
5710AWA10610,,"Companies House",,51.50091864,-3.187680938,,,,,,
5710AWA10611,,"Companies House",,51.500544143,-3.187368653,,,,,,
5710AWA11216,,"Comprehensive School",,51.511248161,-3.250173863,,,,,,
5710AWA10819,,"Constellation Street",,51.483147557,-3.158329643,,,,,,
5710AWA10818,,"Constellation Street",,51.483098198,-3.158774838,,,,,,
5710WDB23955,,"Conway Road",,51.485522422,-3.202878464,,,,,,
5710AWM26315,,"Copperfield Drive",,51.537095663,-3.190958411,,,,,,
5710AWA12984,,"Copperfield Drive",,51.536972006,-3.190738905,,,,,,
5710AWA11116,,"Corbett Road",,51.487620762,-3.1849012,,,,,,
5720AWA12353,,"Cornerswell Rd",,51.435357929,-3.188612173,,,,,,
5720AWA12352,,"Cornerswell Rd",,51.435374938,-3.187821357,,,,,,
5720AWA12361,,"Cornerswell Rd",,51.435016082,-3.187740115,,,,,,
5720WDB48394,,"Cornerswell Road",,51.435285188,-3.187804642,,,,,,
5710AWA11625,,"Cornwall Court",,51.471669324,-3.190203761,,,,,,
5710AWA10989,,"Coronation Road",,51.51169644,-3.20214125,,,,,,
5710AWA11658,,"Corporation Rd",,51.470646965,-3.18549793,,,,,,
5710AWM26242,,"Corpus Christi High School",,51.533322851,-3.160078871,,,,,,
5710AWA11373,,"Cosheston Close",,51.499411369,-3.244577011,,,,,,
5720AWA12011,,"Cosmeston Lakes",,51.417229761,-3.180635009,,,,,,
5720AWA12010,,"Cosmeston Lakes",,51.416913411,-3.180591481,,,,,,
5710AWA10092,,"Countisbury Avenue",,51.52174594,-3.119829944,,,,,,
5710AWA10091,,"Countisbury Avenue",,51.520434945,-3.120289992,,,,,,
5710AWA10800,,"Courtney Road",,51.482413442,-3.148863808,,,,,,
5710AWA11252,,"Cow & Snuffers",,51.502628293,-3.226006653,,,,,,
5710AWA11487,,"Cowbridge Road",,51.467219244,-3.268243887,,,,,,
5710AWA11489,,"Cowbridge Road",,51.467592233,-3.267753369,,,,,,
5720AWA12360,,Cowslip,,51.441760511,-3.195656134,,,,,,
5720AWA12398,,"Cowslip Drive",,51.441418995,-3.192107664,,,,,,
5720AWA12399,,"Cowslip Drive",,51.441465029,-3.192885838,,,,,,
5720AWA12397,,"Cowslip Drive (Agnes Street)",,51.442078079,-3.189189552,,,,,,
5710AWA11687,,"Craddock St",,51.476884292,-3.19023873,,,,,,
5710AWA14481,,"Creigiau (Inn)",,51.524234477,-3.323741418,,,,,,
5710AWA14474,,"Creigiau Inn",,51.52448735,-3.324440661,,,,,,
5710AWA10873,,Crematorium,,51.53490673,-3.206299564,,,,,,
5710AWA10874,,Crematorium,,51.535447725,-3.20615527,,,,,,
5710AWA10875,,"Crematorium Top",,51.538843351,-3.206475764,,,,,,
5710AWA10186,,"Crickhowell Road",,51.519156067,-3.102773708,,,,,,
5720AWA10432,,"Crogan Hill",,51.411371069,-3.270511044,,,,,,
5710AWA10851,,"Cross Inn",,51.508888068,-3.199790587,,,,,,
5710AWA11080,,"Cross Inn",,51.50832688,-3.201029467,,,,,,
5710AWA10852,,"Cross Inn",,51.50880952,-3.199557969,,,,,,
5710AWA10947,,"Crundale Crescent East",,51.526840931,-3.184367193,,,,,,
5710AWA10946,,"Crundale Crescent East",,51.526571726,-3.184196882,,,,,,
5710CBZ02527,,"Crundale Crescent West",,51.5261263,-3.187342228,,,,,,
5710AWA10959,,"Crystal Glen",,51.517693294,-3.183649474,,,,,,
5710AWA10961,,"Crystal Glen",,51.517948199,-3.183339008,,,,,,
5720AWA12044,,"Culver Close",,51.426826913,-3.188376367,,,,,,
5710AWA11490,,"Culverhouse Pub",,51.469396567,-3.263872929,,,,,,
5720AWA11963,,"Custom House Place",,51.44514136,-3.169828842,,,,,,
5710CAA02623,,"Customhouse Street JG",,51.476878285,-3.174787852,,,,,,
5710AWA11632,,"Cymmer Street",,51.468937692,-3.183797956,,,,,,
5710AWA10513,,"Cyncoed Ave",,51.518582064,-3.164028015,,,,,,
5710AWA10512,,"Cyncoed Avenue",,51.518574647,-3.163869287,,,,,,
5710AWA10663,,"Cyncoed Village",,51.525964506,-3.167632671,,,,,,
5710AWA10497,,"Cyncoed Village",,51.525837408,-3.16685101,,,,,,
5710CAA02566,,"Cyncoed Village",,51.52653118,-3.166710182,,,,,,
5710AWA10664,,"Cyncoed Village",,51.526154434,-3.16752221,,,,,,
5710AWA11491,,"Cyntwell Avenue",,51.470449887,-3.257903992,,,,,,
5710AWA11492,,"Cyntwell Avenue",,51.470462027,-3.257610615,,,,,,
5710AWA10624,,"Cyril Crescent",,51.487775737,-3.156776209,,,,,,
5710AWA10776,,"Dalmuir Road",,51.486524649,-3.143148527,,,,,,
5710AWA11233,,"Danescourt Way",,51.499562326,-3.23540401,,,,,,
5710AWA11210,,Danybryn,,51.517451047,-3.253687417,,,,,,
5710AWA11209,,Danybryn,,51.51758825,-3.254310921,,,,,,
5710AWA11203,,"Dan-Y-Bryn Ave",,51.519518981,-3.262925354,,,,,,
5710AWA11202,,"Dan-Y-Bryn Ave",,51.518364462,-3.264089668,,,,,,
5710WDB25401,,"Dan-Y-Bryn Ave",,51.518256133,-3.263895556,,,,,,
5710AWA10667,,"Dan-y-Coed Road",,51.522693816,-3.173703768,,,,,,
5710AWA10785,,"De Havilland Road",,51.48894634,-3.131729673,,,,,,
5710AWA11447,,"Deepwood Close",,51.476228399,-3.271549507,,,,,,
5710AWA11448,,"Denison Way",,51.475791922,-3.273654067,,,,,,
5710WDB48429,,"Dental Hospital",,51.506638241,-3.192037096,,,,,,
5710AWA10511,,"Derwen Road",,51.527808557,-3.166656348,,,,,,
5710AWA11686,,"Despenser Gardens",,51.478972773,-3.188233877,,,,,,
5720WDB24120,,"Devon Avenue",,51.409792842,-3.265952418,,,,,,
5720AWA10395,,"Dinas Powis Station",,51.431492058,-3.219181287,,,,,,
5720AWA10436,,"Dinas Powys Infant School",,51.435970483,-3.212207887,,,,,,
5720AWA10390,,"Dinas Powys Infant School",,51.43651334,-3.212754575,,,,,,
5720WDB4855,,"Dinas Powys Medical Centre",,51.431630026,-3.202669998,,,,,,
5720AWA10391,,"Dinas Powys Sch",,51.435644985,-3.213249492,,,,,,
5720AWA10435,,"Dinas Powys Square",,51.434447391,-3.219378523,,,,,,
5720CBZ02546,,"Dinas Road",,51.429479156,-3.184863415,,,,,,
5720AWA12342,,"Dinas Road",,51.430245721,-3.18553057,,,,,,
5720WDB23956,,"Dinas Road Rounabout",,51.428733991,-3.190957513,,,,,,
5710AWA10484,,"Discovery Inn",,51.514939089,-3.168676523,,,,,,
5710AWA10483,,"Discovery Inn",,51.514891126,-3.168977937,,,,,,
5720WDB48396,,"Dochdwy Road",,51.448268002,-3.193910333,,,,,,
5720CBZ02538,,"Dochdwy Road PO",,51.449351133,-3.196401308,,,,,,
5720AWA10737,,"Docks Link Road",,51.429558969,-3.259968091,,,,,,
5720AWA10736,,"Docks Link Road",,51.429797022,-3.259571866,,,,,,
5710AWA10517,,"Dogfield Street",,51.496555308,-3.180782384,,,,,,
5710WDB25439,,Dol-y-Felin,,51.521891629,-3.330534498,,,,,,
5710AWA10134,,"Downton Grange",,51.503962011,-3.121511819,,,,,,
5710AWA11424,,"Dulwich House",,51.488359295,-3.210313173,,,,,,
5710WDB23323,,"Dumballs Road Bottom",,51.465689843,-3.170541522,,,,,,
5710WDB23328,,"Dumballs Road Bottom",,51.465878194,-3.170589531,,,,,,
5710AWA12736,,"Dumfries Place HV",,51.48362378,-3.171936879,,,,,,
5710AWA12737,,"Dumfries Place",,51.484088504,-3.172222429,,,,,,
5710AWL26183,,"Dunleavy Drive",,51.45260914,-3.189045869,,,,,,
5710WDB23569,,"Dunleavy Drive",,51.454425387,-3.18817195,,,,,,
5710AWA11630,,"Durham Street",,51.470620691,-3.186379677,,,,,,
5710AWA11566,,"Dusty Forge",,51.473188076,-3.256634507,,,,,,
5710AWA11484,,"Dusty Forge",,51.473376038,-3.25587655,,,,,,
5720AWA10428,,"Dyfan Rd",,51.415041284,-3.264558747,,,,,,
5720AWA10429,,"Dyfan Rd / Barry Rd",,51.412209921,-3.265285849,,,,,,
5720AWA10427,,"Dyfan Road",,51.414979599,-3.264442003,,,,,,
5720AWA12351,,"Dyserth Rd",,51.436097625,-3.184952258,,,,,,
5720AWA12350,,"Dyserth Rd",,51.435999264,-3.184773188,,,,,,
5710AWA11609,,"Earl Street",,51.462643232,-3.18380778,,,,,,
5710CBZ02504,,"Earl`s Court Road",,51.498387305,-3.15574834,,,,,,
5710WDB48383,,"East Park & Ride",,51.521163963,-3.135468682,,,,,,
5710AWA11766,,"East Tyndall Street",,51.479122434,-3.157090026,,,,,,
5720AWA10388,,Eastbrook,,51.439044648,-3.205340039,,,,,,
5720AWA10389,,Eastbrook,,51.438491254,-3.205814644,,,,,,
5710AWA10084,,"Eastern Leisure Centre",,51.51348034,-3.129426696,,,,,,
5710AWA10083,,"Eastern Leisure Centre",,51.512559469,-3.130744116,,,,,,
5710AWA10107,,"Eastern Leisure Centre",,51.512909372,-3.130824836,,,,,,
5710WDB48570,,"Eastgate Business Park",,51.500649955,-3.120589993,,,,,,
5710WDB48566,,"Eastgate Business Park",,51.499870018,-3.121979982,,,,,,
5310AWB31087,,"Ebbw Bridge Club",,51.569977661,-3.015092926,,,,,,
5720AWA12000,,"Elfed Avenue",,51.435494759,-3.189306279,,,,,,
5720AWA12006,,"Elfed Avenue",,51.435579969,-3.19330796,,,,,,
5720AWA11999,,"Elfed Avenue",,51.435413414,-3.189347326,,,,,,
5710AWA10093,,"Elgar Crescent",,51.524702762,-3.118100675,,,,,,
5710AWA10094,,"Elgar Crescent",,51.52503648,-3.117993534,,,,,,
5720AWA10393,,"Elm Grove",,51.433854078,-3.215129767,,,,,,
5720AWA10392,,"Elm Grove",,51.434244355,-3.21478047,,,,,,
5710AWA10050,,"Elm Street",,51.487230748,-3.160060652,,,,,,
5710AWA11320,,"Ely Bridge",,51.484800083,-3.22745822,,,,,,
5710AWA11330,,"Ely Bridge",,51.484363418,-3.226222325,,,,,,
5710AWA11572,,"Ely Legion",,51.483199278,-3.233478303,,,,,,
5710AWA11568,,"Ely Police Station",,51.476565553,-3.24656127,,,,,,
5710AWA11482,,"Ely Police Station",,51.476498162,-3.246429837,,,,,,
5710AWA11331,,"Ely Road",,51.486645357,-3.228991258,,,,,,
5720AWA12023,,"Enterprise Centre",,51.406462855,-3.225632203,,,,,,
5720AWA12022,,"Enterprise Centre",,51.40657554,-3.225175136,,,,,,
5710AWA11344,,"Everswell Rd",,51.489909652,-3.243468374,,,,,,
5720AWA10007,,"Ewbank Close",,51.418715695,-3.245561737,,,,,,
5720AWA10008,,"Ewbank Close",,51.418752693,-3.246310573,,,,,,
5710AWA10674,,"Ewenny Road",,51.525200317,-3.181090944,,,,,,
5710WDB48583,,"Excalibur Drive",,51.539424744,-3.188332763,,,,,,
5710AWA11369,,"Fairwater RFC",,51.495768818,-3.245500571,,,,,,
5710AWA11368,,"Fairwater RFC",,51.494980069,-3.245278113,,,,,,
5710AWA11348,,"Fairways Crescent (W)",,51.489007659,-3.249651717,,,,,,
5710AWA11444,,"Fern Street",,51.485872427,-3.213415844,,,,,,
5710AWA11608,,"Ferry Road",,51.461619672,-3.185436685,,,,,,
5710AWA11596,,"Ferry Road",,51.463016662,-3.186005514,,,,,,
5710AWA11200,,"Ffordd Las",,51.517404801,-3.263025398,,,,,,
5710AWA11201,,"Ffordd Las",,51.517242227,-3.262257044,,,,,,
5710WDB48440,,"Ffordd Mograig",,51.523012425,-3.200853731,,,,,,
5710WDB48441,,"Ffordd Mograig",,51.522865938,-3.201109331,,,,,,
5710AWA10673,,"Fidlas Avenue",,51.524502472,-3.180741348,,,,,,
5710AWA10976,,Fieldway,,51.519621402,-3.194797514,,,,,,
5710AWA10975,,Fieldway,,51.519742997,-3.195218676,,,,,,
5710AWA11388,,"Firs Ave",,51.490873235,-3.255147468,,,,,,
5710AWA10950,,"Fishguard Rd",,51.523841219,-3.187455751,,,,,,
5710WDB25312,,"Fishguard Rd Shops",,51.525360181,-3.183963635,,,,,,
5710AWA10951,,"Fishguard Road",,51.524048561,-3.187403488,,,,,,
5710CBZ02528,,"Fishguard Road",,51.52607105,-3.187470526,,,,,,
5710WDB23554,,"Fishguard Road",,51.523629861,-3.183457489,,,,,,
5710WDB48506,,"Fishguard Road",,51.523503571,-3.183497457,,,,,,
5710CAA02567,,"Fishguard Road Shops",,51.525152404,-3.184059148,,,,,,
5710AWA11573,,"Fitzalan High School",,51.475667754,-3.210535408,,,,,,
5710AWA10242,,"Fitzalan Place",,51.483314081,-3.168731789,,,,,,
5710CAA02560,,"Fitzhamon Embankment",,51.4772068,-3.18414167,,,,,,
5710AWA10607,,"Flaxland Avenue",,51.503777481,-3.193936331,,,,,,
5720AWA10742,,"Florence Avenue",,51.421357384,-3.278309902,,,,,,
5720AWA10743,,"Florence Avenue",,51.420769576,-3.277790128,,,,,,
5720AWA12012,,"Ford Road",,51.412735922,-3.18398465,,,,,,
5720WDB24121,,"Ford Road",,51.412934276,-3.183932257,,,,,,
5710AWA11349,,"Forest View",,51.48896541,-3.251926305,,,,,,
5720AWA12339,,"Forrest Road",,51.425013361,-3.180087712,,,,,,
5710AWA10629,,"Fort Street",,51.490094849,-3.15137592,,,,,,
5710AWA10622,,"Four Elms Road",,51.486800243,-3.159948905,,,,,,
5710AWA11533,,"Foxglove Close",,51.476401011,-3.257212403,,,,,,
5710CBX02469,,"Foxglove Close",,51.476528211,-3.256251133,,,,,,
5720AWA12401,,"Foxglove Rise",,51.442146624,-3.195709386,,,,,,
5720AWA12402,,"Foxglove Rise",,51.442217807,-3.195783188,,,,,,
5710AWA11782,,Freemans,,51.461960496,-3.195262818,,,,,,
5710AWA11783,,Freemans,,51.461473445,-3.195408432,,,,,,
5710AWA11763,,"Freshmoor Road",,51.477306447,-3.151572191,,,,,,
5720WDB24017,,"Garn Farm",,51.434036489,-3.261688168,,,,,,
5720AWA10749,,"Garn Farm",,51.434193497,-3.262138468,,,,,,
5710AWA11184,,"Gelynis Terrace",,51.528099983,-3.259328228,,,,,,
5710AWA11185,,"Gelynis Terrace",,51.527695776,-3.259288242,,,,,,
5720AWA10424,,"Gibbonsdown Comm Centre",,51.418783344,-3.265266058,,,,,,
5720AWA10423,,"Gibbonsdown Comm Centre",,51.418972898,-3.265199386,,,,,,
5710AWA11236,,"Gillian Road",,51.497604195,-3.229214036,,,,,,
5710AWA11237,,"Gillian Road",,51.49763094,-3.23009353,,,,,,
5720AWL26190,,"Gladstone Bridge",,51.40248571,-3.275583972,,,,,,
5710AWA10518,,"Gladstone School",,51.49744264,-3.182850977,,,,,,
5720AWA12008,,"Glamorganshire Golf Club",,51.422044932,-3.176617011,,,,,,
5720AWA12009,,"Glamorganshire Golf Club",,51.42200724,-3.17678863,,,,,,
5710AWA10146,,"Glan y Mor Road",,51.516313677,-3.109217783,,,,,,
5710AWA10145,,"Glan y Mor Road",,51.516395128,-3.10949503,,,,,,
5710WDB46607,,"Glanhowny Close",,51.469978925,-3.167843826,,,,,,
5710AWA11760,,"Glass Avenue",,51.473962887,-3.147758738,,,,,,
5710AWA10904,,"Glenmount Way",,51.538866856,-3.200679892,,,,,,
5710AWA10649,,"Glenside Court",,51.502298034,-3.164909639,,,,,,
5710AWA10650,,"Glenside Court",,51.502544003,-3.165005096,,,,,,
5710AWA10283,,Glenwood,,51.516657266,-3.157724095,,,,,,
5710AWA10282,,Glenwood,,51.516414973,-3.157674714,,,,,,
5710AWA10365,,"Glyn Collen",,51.523806511,-3.138359629,,,,,,
5710AWA10366,,"Glyn Collen",,51.523066338,-3.140503279,,,,,,
5710AWA10336,,"Glyn Eiddw",,51.530295856,-3.148785971,,,,,,
5710AWA10337,,"Glyn Eiddw",,51.530220877,-3.148178597,,,,,,
5710AWA10329,,"Glyncoed School",,51.524205386,-3.154585824,,,,,,
5720AWA12007,,"Glyndwr Rd",,51.435942206,-3.191288878,,,,,,
5720AWA12001,,"Glyndwr Rd",,51.435462918,-3.191060322,,,,,,
5710AWA11288,,"Glynstell Close",,51.464581168,-3.195433659,,,,,,
5710AWA11287,,"Glynstell Close",,51.465022004,-3.196609661,,,,,,
5710WDB48509,,"Goitre Fach Farm",,51.510042017,-3.267043889,,,,,,
5710WDB48510,,"Goitre Fach Farm",,51.510266035,-3.268779327,,,,,,
5710AWA11384,,"Gorse Place",,51.491472331,-3.246190087,,,,,,
5710AWA11346,,"Gorse Place (E)",,51.489682839,-3.246198897,,,,,,
5710AWA10929,,"Government Buildings",,51.527831219,-3.198299228,,,,,,
5710AWA10930,,"Government Buildings",,51.52731853,-3.199193941,,,,,,
5710AWA10465,,"Grafton Close",,51.505579387,-3.154979377,,,,,,
5710AWA10466,,"Grafton Close",,51.505686127,-3.155097346,,,,,,
5710AWA11190,,"Graig Hir",,51.521955847,-3.2604127,,,,,,
5710AWA11187,,"Graig Wen",,51.525755472,-3.25826889,,,,,,
5710AWA11186,,"Graig Wen",,51.525970464,-3.258353092,,,,,,
5710AWA11570,,"Grand Avenue",,51.480230702,-3.238712043,,,,,,
5710AWA11634,,"Grange Gardens",,51.467853174,-3.181667962,,,,,,
5710AWA11635,,"Grange Gardens",,51.467621185,-3.181489207,,,,,,
5710AWA11530,,"Green Farm Close",,51.472543768,-3.263038432,,,,,,
5710AWA11529,,"Green Farm Close",,51.472656131,-3.263459087,,,,,,
5710AWA11565,,"Green Farm Road",,51.471110571,-3.260018492,,,,,,
5710AWA10270,,Greenlawns,,51.503208162,-3.160178268,,,,,,
5710AWA10269,,Greenlawns,,51.503165779,-3.159917851,,,,,,
5720AWA10378,,"Greenway Close",,51.453057409,-3.201521052,,,,,,
5720AWA10377,,"Greenway Close",,51.453357448,-3.202075834,,,,,,
5710AWA11081,,"Greyfriars Road Stop GN",,51.483275167,-3.176219605,,,,,,
5710AWA11018,,"Gron Ffordd",,51.532450685,-3.214264961,,,,,,
5710AWA11019,,"Gron Ffordd",,51.53251555,-3.214079264,,,,,,
5710AWA10798,,"Grosvenor Square",,51.481610044,-3.14734591,,,,,,
5710AWA10797,,"Grosvenor Square",,51.481568755,-3.146198411,,,,,,
5720AWA11988,,"Grove Terrace",,51.43721666,-3.179078637,,,,,,
5720AWA11989,,"Grove Terrace",,51.437244786,-3.178964264,,,,,,
5710AWA10767,,"Gwendoline Street",,51.480770765,-3.155893287,,,,,,
5720AWA11797,,"Gwenog Court",,51.408007788,-3.287829585,,,,,,
5710AWA10507,,"Gwern Rhuddi Road",,51.530726583,-3.160748102,,,,,,
5710WDB25313,,"Hackerford Rd",,51.529451208,-3.166943421,,,,,,
5710AWA10370,,"Hadfield Road",,51.471780821,-3.209183187,,,,,,
5710AWA10369,,"Hadfield Road",,51.472166479,-3.209279774,,,,,,
5710AWA11523,,"Haig Place",,51.471043168,-3.261269244,,,,,,
5310AWB31070,,"Halfway Garage",,51.550024406,-3.069454675,,,,,,
5310AWB31069,,"Halfway Garage",,51.549822771,-3.070228181,,,,,,
5710AWA11777,,"Halfway Hotel",,51.489061942,-3.202323481,,,,,,
5710WDB25314,,"Hampton Cres West",,51.531456697,-3.164197863,,,,,,
5710WDB25316,,"Hampton Crescent",,51.531388383,-3.160202686,,,,,,
5710AWA11668,,"Hannah Street",,51.468631052,-3.167751816,,,,,,
5720AWA10026,,"Hannah Street",,51.410701719,-3.261721388,,,,,,
5710AWA11669,,"Hannah Street",,51.468450399,-3.167833584,,,,,,
5720AWA10025,,"Hannah Street",,51.411049352,-3.26117018,,,,,,
5720AWA11712,,"Hanover Street",,51.407708123,-3.271631618,,,,,,
5310AWB30501,,"Harlech Retail Park",,51.573791303,-3.010791185,,,,,,
5710AWA10137,,"Harris Avenue",,51.509074015,-3.119746681,,,,,,
5720AWA11998,,"Hastings Avenue",,51.437876424,-3.1894257,,,,,,
5720AWA11997,,"Hastings Place",,51.438403806,-3.188849517,,,,,,
5720AWA11996,,"Hastings Place",,51.438493994,-3.188823084,,,,,,
5710AWA11514,,"Haverford Way",,51.475490401,-3.238857186,,,,,,
5710AWA11513,,"Haverford Way",,51.475239611,-3.238763996,,,,,,
5710WDB25428,,"Hayes Bridge Road",,51.477412999,-3.174369602,,,,,,
5710AWA11196,,"Hazel Tree Close",,51.520888756,-3.267647653,,,,,,
5710AWA10100,,"Hazlitt Close",,51.528390533,-3.122688743,,,,,,
5710AWA10101,,"Hazlitt Close",,51.527269339,-3.124275681,,,,,,
5720AWA12347,,"Health Centre",,51.434820433,-3.183320595,,,,,,
5710AWA11364,,"Health Centre",,51.490909031,-3.240802014,,,,,,
5710AWA11365,,"Health Centre",,51.490986734,-3.241106609,,,,,,
5710AWA10582,,"Heath Halt Rd",,51.514198427,-3.182463602,,,,,,
5710CBZ02530,,"Heath Halt Road",,51.512758085,-3.181734577,,,,,,
5710WDB25397,,"Heath Halt Road",,51.513145796,-3.181629324,,,,,,
5710AWA10583,,"Heath Halt Road",,51.513905114,-3.182124547,,,,,,
5710WDB48430,,"Heath Hospital (Multi Storey)",,51.505895361,-3.187851715,,,,,,
5710AWA10529,,"Heath Hospital (Opp. Main Entrance)",,51.506191761,-3.188541249,,,,,,
5710AWA10521,,"Heath Hotel",,51.499100448,-3.184305747,,,,,,
5710AWA10522,,"Heath Hotel",,51.499174401,-3.184105973,,,,,,
5710AWA10612,,"Heath Hotel",,51.498941806,-3.184877895,,,,,,
5710AWA10613,,"Heath Hotel",,51.4989263,-3.184632582,,,,,,
5710AWA10581,,"Heath Park Ave",,51.516365172,-3.183384445,,,,,,
5710AWA10580,,"Heath Park Avenue",,51.515799559,-3.183297724,,,,,,
5710AWA10532,,"Heath Park Way",,51.508579182,-3.191280828,,,,,,
5710AWA11240,,Heathcock,,51.496295525,-3.222797086,,,,,,
5710AWA10586,,Heathmead,,51.50887995,-3.182887849,,,,,,
5710AWA10966,,Heathway,,51.514200366,-3.192926277,,,,,,
5710AWA10967,,Heathway,,51.513927164,-3.193265008,,,,,,
5710AWA10977,,"Heathway Top",,51.519390424,-3.19363843,,,,,,
5710AWA10978,,"Heathway Top",,51.519460433,-3.19382763,,,,,,
5710AWA10587,,"Heathwood Grove",,51.508503552,-3.182762823,,,,,,
5720AWA10445,,"Hebron Hall",,51.428178763,-3.216992973,,,,,,
5720AWA10446,,"Hebron Hall",,51.42814836,-3.217323003,,,,,,
5710AWA10196,,"Hendre Road",,51.519864701,-3.112476382,,,,,,
5710AWA10195,,"Hendre Road",,51.520230409,-3.112787971,,,,,,
5710WDB48539,,"Heol Bennett",,51.53334083,-3.124599454,,,,,,
5710WDB48542,,"Heol Booths 2",,51.535391906,-3.124922803,,,,,,
5710WDB48545,,"Heol Booths 3",,51.536098672,-3.125455969,,,,,,
5710WDB25132,,"Heol Danyrodyn",,51.530247534,-3.295789177,,,,,,
5710AWA10859,,"Heol Dyfed",,51.515984588,-3.200481501,,,,,,
5710AWA10669,,"Heol Esgyn",,51.520700757,-3.177875633,,,,,,
5710AWA11152,,"Heol Gabriel",,51.507402377,-3.215702544,,,,,,
5710AWA10893,,"Heol Hir",,51.538669263,-3.190778596,,,,,,
5710AWA11218,,"Heol Isaf",,51.508195718,-3.250565806,,,,,,
5710AWA11217,,"Heol Isaf",,51.508522712,-3.25025775,,,,,,
5710AWA10866,,"Heol Iscoed",,51.526147488,-3.202911098,,,,,,
5710AWA11017,,"Heol Lewis",,51.531618701,-3.211244112,,,,,,
5710AWA11016,,"Heol Lewis",,51.531682818,-3.211130479,,,,,,
5710AWA11006,,"Heol Llanishen Fach",,51.529109466,-3.211292832,,,,,,
5710AWA11007,,"Heol Llanishen Fach",,51.529186441,-3.210804728,,,,,,
5710AWA10952,,"Heol Merlin",,51.522510144,-3.185705859,,,,,,
5710AWA10953,,"Heol Merlin",,51.522613209,-3.186184198,,,,,,
5710AWA11005,,"Heol Nant Castan",,51.528249614,-3.213576534,,,,,,
5710AWA11004,,"Heol Nant Castan",,51.528338166,-3.213708631,,,,,,
5710AWA11055,,"Heol Pant Y Rhyn",,51.523262208,-3.230539189,,,,,,
5710AWA11054,,"Heol Pant Y Rhyn",,51.523477801,-3.230559416,,,,,,
5710AWA11517,,"Heol Pennar",,51.47356653,-3.239668971,,,,,,
5710AWA11503,,"Heol Pennar",,51.473132487,-3.23986454,,,,,,
5710AWA10355,,"Heol Pontprennau",,51.535533123,-3.132654333,,,,,,
5710AWA10356,,"Heol Pontprennau",,51.535524466,-3.131688112,,,,,,
5710AWA11225,,"Heol Seddon",,51.503125827,-3.243655266,,,,,,
5710AWA11224,,"Heol Seddon",,51.502947415,-3.243520738,,,,,,
5710AWA11485,,"Heol Trelai",,51.471463918,-3.258933985,,,,,,
5710AWA11495,,"Heol Trenewydd",,51.470502371,-3.251867069,,,,,,
5710AWA11009,,"Heol Uchaf",,51.529976778,-3.209153405,,,,,,
5710AWA11008,,"Heol Uchaf Spar",,51.529609919,-3.209850078,,,,,,
5710AWA11230,,"Heol Urban",,51.500332376,-3.235712977,,,,,,
5710AWA11231,,"Heol Urban",,51.500194955,-3.235954178,,,,,,
5710AWA11002,,"Heol y Deri",,51.527468701,-3.216914589,,,,,,
5710AWA11003,,"Heol y Deri",,51.527452965,-3.216697936,,,,,,
5710WDB48567,,"Heol Y Rhosog",,51.500770037,-3.117249936,,,,,,
5710WDB48568,,"Heol Y Rhosog",,51.500920009,-3.117270028,,,,,,
5710AWA11571,,Heol-y-Felin,,51.481888473,-3.235847928,,,,,,
5710AWA11496,,Heol-y-Gaer,,51.470813953,-3.250383275,,,,,,
5710AWA10760,,"Herbert Street",,51.47615599,-3.169686333,,,,,,
5710WDB46608,,"Herbert Street",,51.474536288,-3.171603131,,,,,,
5710AWA10759,,"Herbert Street",,51.476403305,-3.16923188,,,,,,
5710AWA11626,,"Hereford Street",,51.47248788,-3.189289187,,,,,,
5710AWA10165,,"Heritage Inn",,51.526206615,-3.102670192,,,,,,
5710AWA10177,,"Heritage Park",,51.527657186,-3.096607496,,,,,,
5710AWA10135,,"Heron Road",,51.50680172,-3.119809261,,,,,,
5710AWA10136,,"Heron Road",,51.50696271,-3.119899662,,,,,,
5710AWA10119,,"High School",,51.516238769,-3.121208097,,,,,,
5710AWA10063,,"High School",,51.516847828,-3.120516863,,,,,,
5710AWA10121,,Highcroft,,51.513217205,-3.124996026,,,,,,
5710AWA10061,,Highcroft,,51.513268655,-3.125256691,,,,,,
5710AWA10584,,"Highfield Road Top",,51.510855631,-3.182247339,,,,,,
5710AWA10585,,"Highfield Road Top",,51.510763121,-3.182504328,,,,,,
5710AWA10128,,Highlands,,51.501864645,-3.132971806,,,,,,
5720AWA11704,,"Highlight Lane",,51.417238537,-3.289023808,,,,,,
5720AWA10753,,"Highlight Park",,51.415604538,-3.28879089,,,,,,
5710AWA11539,,"Highmead Road",,51.48009298,-3.239831561,,,,,,
5720AWA11731,,"Hilda Street",,51.402257285,-3.276742089,,,,,,
5710AWA10647,,"Hillside Court",,51.499664394,-3.163080821,,,,,,
5710AWA10352,,"Hollington Drive",,51.535482818,-3.134138136,,,,,,
5710AWA10328,,"Holly Bush",,51.524293153,-3.154804261,,,,,,
5710WDB23366,,"Holly Grove",,51.544443356,-3.178358964,,,,,,
5710AWA10703,,"Holly Grove",,51.544446108,-3.178085038,,,,,,
5710AWA11383,,"Holly Rd",,51.4904884,-3.245702327,,,,,,
5710AWA11059,,"Hollybush Inn",,51.521510876,-3.233763879,,,,,,
5710AWA11056,,"Hollybush Inn",,51.521805302,-3.232272804,,,,,,
5710AWA11057,,"Hollybush Inn",,51.521775608,-3.232531451,,,,,,
5710AWA11058,,"Hollybush Inn",,51.521225643,-3.233525551,,,,,,
5720CBX02465,,"Holmsdale Place",,51.433020197,-3.170727536,,,,,,
5710AWA10476,,"Holmwood Close",,51.51196714,-3.164623126,,,,,,
5720AWA11915,,"Holton Road",,51.404742769,-3.27061484,,,,,,
5710AWA11376,,"Holy Family Church",,51.498033631,-3.239670147,,,,,,
5710AWA11501,,"Home Guard Club",,51.471654838,-3.246960111,,,,,,
5710AWA11497,,"Home Guard Club",,51.471027393,-3.249205325,,,,,,
5710AWA10993,,"Homelands Rd",,51.517529166,-3.207685083,,,,,,
5710CBZ02542,,"Horle Close",,51.465092293,-3.177234687,,,,,,
5710CBZ02543,,"Horle Close",,51.465373862,-3.176954016,,,,,,
5710AWA11065,,Hospital,,51.518759979,-3.22942333,,,,,,
5710WDB48428,,Hospital,,51.505877543,-3.189999301,,,,,,
5720AWA10383,,Hospital,,51.44924271,-3.2052988,,,,,,
5720AWA10384,,Hospital,,51.448149632,-3.198284269,,,,,,
5720AWA10382,,Hospital,,51.448273787,-3.200632751,,,,,,
5720AWA11888,,Hospital,,51.414202539,-3.282985084,,,,,,
5710AWA11064,,Hospital,,51.519153619,-3.230471664,,,,,,
5710AWA11542,,"Howell Road",,51.478487374,-3.251308122,,,,,,
5710AWA11243,,"Howells School",,51.492031549,-3.213449766,,,,,,
5710WDB25315,,"Hurford Place",,51.530333618,-3.166821824,,,,,,
5710AWA10047,,Infirmary,,51.484800216,-3.16577417,,,,,,
5710WDB48508,,Infirmary,,51.485645163,-3.163395581,,,,,,
5710AWA10240,,Infirmary,,51.484548363,-3.165782148,,,,,,
5710AWA10239,,Infirmary,,51.48462257,-3.165553609,,,,,,
5710AWA10048,,Infirmary,,51.485891447,-3.162734301,,,,,,
5710AWA10524,,"Inglefield Ave",,51.503324105,-3.183666055,,,,,,
5710AWA11318,,"Insole Place",,51.489832116,-3.225269784,,,,,,
5710AWA11417,,"Insole Shops",,51.488585794,-3.225695111,,,,,,
5710AWA10448,,Interchange,,51.521834504,-3.142346276,,,,,,
5710AWA10447,,Interchange,,51.521700782,-3.14222762,,,,,,
5710AWA10604,,Interchange,,51.504449588,-3.196806737,,,,,,
5710AWA10605,,Interchange,,51.504331548,-3.196918909,,,,,,
5710AWA10970,,Interchange,,51.503605329,-3.197591461,,,,,,
5710AWA10847,,Interchange,,51.503576379,-3.198180853,,,,,,
5710AWA10056,,"Ipswich Road",,51.498515088,-3.141261106,,,,,,
5710AWA10220,,"Ipswich Road",,51.498558477,-3.140969741,,,,,,
5710CAA02573,,"Jackson Rd",,51.477824978,-3.260261153,,,,,,
5710AWA11547,,"Jackson Road",,51.477841718,-3.260376814,,,,,,
5710AWA11253,,"James & Jenkins",,51.504200426,-3.227864291,,,,,,
5710AWA11254,,"James & Jenkins",,51.504358313,-3.228243151,,,,,,
5710AWA11641,,"James Street",,51.464553475,-3.169979799,,,,,,
5710AWA10770,,"Janet Street",,51.4810349,-3.151896535,,,,,,
5720AWA11980,,"Jenkins Villas",,51.440895502,-3.167288723,,,,,,
5720AWA10430,,"Jenner Park",,51.411856987,-3.266325786,,,,,,
5710WDB23319,,"John Street",,51.476244297,-3.17344682,,,,,,
5710AWA10907,,"Johnston Road",,51.530516231,-3.202161281,,,,,,
5710AWA10872,,"Johnston Road",,51.531964322,-3.204751237,,,,,,
5710AWA10871,,"Johnston Road",,51.53191819,-3.204865354,,,,,,
5710AWA10368,,"Jubilee Park",,51.475763904,-3.203975216,,,,,,
5710AWA10367,,"Jubilee Park",,51.475848801,-3.203588672,,,,,,
5710AWA10217,,"Junior School",,51.505849997,-3.129972819,,,,,,
5710AWA11261,,"Kelston Road",,51.513998484,-3.22902129,,,,,,
5710AWA11262,,"Kelston Road",,51.51392823,-3.228860874,,,,,,
5710AWA10787,,"Kenmuir Road",,51.490125579,-3.142720078,,,,,,
5710AWA11612,,"Kent Street",,51.463379688,-3.181221291,,,,,,
5710AWA10780,,"Kenyon Road",,51.490608612,-3.137431548,,,,,,
5710AWA11401,,"Kerrigan Close",,51.49593878,-3.243041841,,,,,,
5710AWA11374,,"Keyston Road",,51.499147242,-3.241501199,,,,,,
5710AWA11375,,"Keyston Road",,51.49913003,-3.240578706,,,,,,
5710AWA10964,,"King George V Drive",,51.515142184,-3.19050091,,,,,,
5710AWA10965,,"King George V Drive",,51.51484085,-3.190954221,,,,,,
5720AWA10415,,"King William IV",,51.416757081,-3.255517476,,,,,,
5720AWA10416,,"King William IV",,51.416794425,-3.255389073,,,,,,
5710AWA11212,,"Kings Rd",,51.514644195,-3.251290077,,,,,,
5710AWA11093,,Kingsway,,51.482243909,-3.179519752,,,,,,
5310AWB30436,,Kingsway,,51.583649691,-2.991949785,,,,,,
5310AWB30435,,"Kingsway Centre",,51.584731643,-2.991610785,,,,,,
5710AWA11092,,"Kingsway GA",,51.482100365,-3.179487246,,,,,,
5710AWA11097,,"Kingsway GR",,51.482364249,-3.179177227,,,,,,
5710AWA11095,,"Kingsway Hilton GP",,51.483031506,-3.178992821,,,,,,
5710AWA11486,,Knightswell,,51.468658652,-3.264759549,,,,,,
5710AWA10189,,"Kwik Save",,51.524648518,-3.092369403,,,,,,
5710AWA10994,,"Kyle Avenue",,51.517679018,-3.207977296,,,,,,
5720WDB25375,,"Laburnum Way",,51.429915366,-3.213414149,,,,,,
5720AWA10444,,"Laburnum Way",,51.430022794,-3.213460151,,,,,,
5710AWA10575,,"Lady Mary Road",,51.503296714,-3.173867989,,,,,,
5710AWA10574,,"Lady Mary Road",,51.503502176,-3.174002941,,,,,,
5710WDB48468,,"Lake Road North",,51.516285718,-3.176983468,,,,,,
5710AWA10570,,"Lakeside Drive",,51.510427312,-3.173863965,,,,,,
5710AWA10572,,"Lakeside Drive",,51.508966916,-3.173336494,,,,,,
5720AWA10421,,"Laleston Close",,51.420048218,-3.261374768,,,,,,
5720AWA10422,,"Laleston Close",,51.419860535,-3.262103068,,,,,,
5710WDB48565,,"Lamby Way",,51.49858001,-3.125090028,,,,,,
5710WDB48387,,"Lamby Way Depot",,51.49845997,-3.124939984,,,,,,
5710AWA11326,,"Lansdowne Road",,51.481029486,-3.213056861,,,,,,
5710AWA11325,,"Lansdowne Road",,51.480608265,-3.21205203,,,,,,
5710AWA10901,,"Launcelot Cres",,51.537141741,-3.196150303,,,,,,
5710AWA10902,,"Launcelot Crescent",,51.537226931,-3.196613933,,,,,,
5720AWA10401,,"Laura Street",,51.41275198,-3.237260841,,,,,,
5720AWA10402,,"Laura Street",,51.412265971,-3.238153614,,,,,,
5710AWA10106,,"Laureate Close",,51.523591931,-3.129864294,,,,,,
5710AWA10104,,"Laureate Close",,51.523392909,-3.129989095,,,,,,
5720AWA12385,,"Lavernock Road",,51.430462537,-3.183651754,,,,,,
5710AWA11118,,"Law Courts Stop RJ",,51.484324277,-3.180984828,,,,,,
5710AWA11575,,"Leckwith Close",,51.475701169,-3.202202461,,,,,,
5720AWA10374,,"Leckwith Green",,51.46042056,-3.213863325,,,,,,
5720AWA10373,,"Leckwith Green",,51.46041907,-3.21400723,,,,,,
5710CAA02580,,"Leckwith Place",,51.478049216,-3.201213014,,,,,,
5710CAA02579,,"Leckwith Place",,51.478426629,-3.201237332,,,,,,
5720AWA10024,,"Lee Road",,51.411715608,-3.259419881,,,,,,
5710AWA10449,,"Leisure Centre",,51.52166632,-3.146680571,,,,,,
5710AWA10943,,"Leisure Centre",,51.526997057,-3.190147051,,,,,,
5710AWA10450,,"Leisure Centre",,51.5218985,-3.146844955,,,,,,
5710AWA10942,,"Leisure Centre",,51.526866524,-3.190604937,,,,,,
5720WDB22910,,"Lennox Green",,51.411851736,-3.23991106,,,,,,
5710WDB48537,,"Letton Road",,51.472046294,-3.169725177,,,,,,
5710AWA11665,,"Letton Road",,51.47188873,-3.170196279,,,,,,
5710CBZ02493,,"Leven Close",,51.515789268,-3.173583891,,,,,,
5710CBZ02494,,"Leven Close",,51.51581393,-3.173815115,,,,,,
5710AWA10266,,Library,,51.496675406,-3.164276462,,,,,,
5710AWA11265,,Library,,51.515753148,-3.225465561,,,,,,
5710AWA10543,,Library,,51.496691072,-3.165414918,,,,,,
5710AWA11266,,Library,,51.515865236,-3.225065037,,,,,,
5710AWA10264,,Library,,51.496555108,-3.164619134,,,,,,
5710AWA11207,,Library,,51.518690505,-3.257180537,,,,,,
5710AWA10520,,Library,,51.497685212,-3.182871664,,,,,,
5710AWA10694,,"Lisvane (Post Office)",,51.54107494,-3.169922872,,,,,,
5710CBZ02488,,"Lisvane (Post Office)",,51.541274579,-3.169740535,,,,,,
5710AWA10701,,"Lisvane Station",,51.5445971,-3.184520671,,,,,,
5710AWM26306,,"Lisvane Station",,51.54475963,-3.185788603,,,,,,
5710AWA10897,,"Lisvane Station",,51.544180143,-3.186629699,,,,,,
5710AWA11691,,"Littleton Street",,51.477514946,-3.196303053,,,,,,
5710AWA11692,,"Littleton Street",,51.477432571,-3.196444894,,,,,,
5710AWA11778,,"Llandaff Fields",,51.489130585,-3.203520773,,,,,,
5710AWA11256,,"Llandaff Station",,51.506957453,-3.228197784,,,,,,
5710AWA11255,,"Llandaff Station",,51.506818256,-3.228343894,,,,,,
5710AWA10670,,"Llandennis Road",,51.520274631,-3.178224968,,,,,,
5720WDB48435,,"Llandough Church",,51.443692494,-3.200181622,,,,,,
5720AWA11786,,"Llandough Hill",,51.452230992,-3.195282087,,,,,,
5720AWA11787,,"Llandough Hill",,51.451502793,-3.194385178,,,,,,
5720AWA10385,,"Llandough Hospital",,51.446823179,-3.197400089,,,,,,
5720CBZ02536,,"Llandough Hospital (opp. Main Entrance)",,51.448821501,-3.203069372,,,,,,
5720AWA10379,,"Llandough Institute",,51.450861445,-3.199074419,,,,,,
5720AWA10380,,"Llandough Institute",,51.450681828,-3.199105403,,,,,,
5720WDB25111,,"Llandough Trading Est",,51.454225,-3.198140705,,,,,,
5710AWA10274,,"Llanedeyrn Road",,51.505936421,-3.149758056,,,,,,
5710AWA10275,,"Llanedeyrn Road",,51.505958072,-3.149383976,,,,,,
5710AWA10066,,"Llaneirwg Way",,51.527440803,-3.108149042,,,,,,
5710AWA10191,,"Llaneirwg Way",,51.525165848,-3.107200089,,,,,,
5710AWA10190,,"Llaneirwg Way",,51.525056474,-3.107355997,,,,,,
5710AWA10073,,"Llaneirwg Way",,51.527509585,-3.107530848,,,,,,
5710AWA11341,,"Llangattock Road",,51.48931802,-3.237345172,,,,,,
5710AWA10495,,"Llangorse Rd",,51.522697688,-3.165199613,,,,,,
5710AWA10908,,"Llangranog Road",,51.53095186,-3.201769093,,,,,,
5710AWA10923,,"Llanishen Church Heol Hir",,51.529478228,-3.189317964,,,,,,
5710AWA10682,,"Llanishen Station",,51.531947499,-3.182548704,,,,,,
5710AWA10683,,"Llanishen Station",,51.532304627,-3.181909194,,,,,,
5710AWA10523,,"Llanishen Street",,51.502146039,-3.183678748,,,,,,
5710AWA10912,,"Llanon Road",,51.533803986,-3.195442836,,,,,,
5710AWA12982,,"Llanon Road",,51.534633216,-3.189942553,,,,,,
5710AWA12983,,"Llanon Road",,51.535009457,-3.190082127,,,,,,
5710AWA10911,,"Llanon Road",,51.533647786,-3.195770346,,,,,,
5710AWA10060,,"Llanrumney Ave",,51.510597699,-3.129038369,,,,,,
5710AWA10081,,"Llanrumney Avenue",,51.509898798,-3.130649407,,,,,,
5710AWA10113,,"Llanrumney Hall",,51.522481994,-3.131206135,,,,,,
5710AWA10112,,"Llanrumney Hall",,51.522004568,-3.131295199,,,,,,
5710AWA11235,,"Llantrisant Rise",,51.499060805,-3.23350318,,,,,,
5710WDB48519,,"Llantrisant Road",,51.505552075,-3.248879641,,,,,,
5710WDB25404,,"Llantrisant Road",,51.505705104,-3.248948521,,,,,,
5710AWA11552,,"Llewellyn Ave",,51.481692492,-3.252619962,,,,,,
5710AWA11551,,"Llewellyn Avenue",,51.481759791,-3.253053842,,,,,,
5710WDB25077,,"Lloyd George Avenue",,51.467503552,-3.166297763,,,,,,
5710WDB48421,,"Lloyd George Avenue",,51.468104713,-3.166428269,,,,,,
5710AWA10330,,"Llwyn Castan",,51.526253399,-3.153888054,,,,,,
5710AWA10331,,"Llwyn Castan",,51.527039605,-3.153489889,,,,,,
5710WDB48442,,"Llys Enfys",,51.522751298,-3.19913159,,,,,,
5710WDB48443,,"Llys Enfys",,51.522689109,-3.199057886,,,,,,
5710AWA14479,,"Llys Gwynno",,51.520198866,-3.326766496,,,,,,
5710AWA10689,,Lodge,,51.537698979,-3.170326523,,,,,,
5710AWA10688,,Lodge,,51.537535966,-3.170659017,,,,,,
5710AWA10480,,"Lomond Crescent",,51.514853369,-3.164639106,,,,,,
5710AWA10481,,"Lomond Crescent",,51.514782426,-3.165444339,,,,,,
5710AWA11022,,"Lon Ysgubor",,51.530465024,-3.217585577,,,,,,
5710AWA11023,,"Lon Ysgubor",,51.530233544,-3.217363154,,,,,,
5710AWA10816,,"Longcross Street",,51.484390454,-3.163574629,,,,,,
5710AWA10464,,"Lonsdale Road",,51.504738701,-3.153603736,,,,,,
5710AWA11000,,Lon-y-Rhyd,,51.525498482,-3.215276408,,,,,,
5710AWA11001,,Lon-y-Rhyd,,51.525754395,-3.215744504,,,,,,
5710AWA10468,,"Lothian Cres",,51.505847373,-3.158804449,,,,,,
5710AWA10467,,"Lothian Cres",,51.505699246,-3.158325206,,,,,,
5710WDB46611,,"Lower Churchill Way",,51.479845053,-3.171249577,,,,,,
5720AWA11874,,"Lower Merthyr Dyfan",,51.420184972,-3.271186939,,,,,,
5720AWA11873,,"Lower Merthyr Dyfan",,51.419831423,-3.271450381,,,,,,
5710AWA10248,,"Lowther Road",,51.489676659,-3.171804039,,,,,,
5710AWA10247,,"Lowther Road",,51.4886092,-3.171546214,,,,,,
5710AWA10109,,"Lynton Terrace",,51.515687186,-3.130893642,,,,,,
5710AWA10082,,"Lynton Terrace",,51.511314723,-3.1311456,,,,,,
5710CAA02625,,"M&S Ty Glas Avenue",,51.526927316,-3.19170209,,,,,,
5710WDB25186,,"M&S Ty Glas Avenue",,51.526798293,-3.192895192,,,,,,
5710AWA10321,,Maelfa,,51.513678675,-3.153100988,,,,,,
5710AWA10320,,Maelfa,,51.512941562,-3.15366385,,,,,,
5710AWA12450,,"Maes y Llech",,51.507761778,-3.25499201,,,,,,
5710AWA12449,,"Maes y Llech",,51.507624268,-3.254397448,,,,,,
5710CBZ02495,,"Maes yr Awel",,51.519436118,-3.256408354,,,,,,
5310AWB31086,,"Maesglas BP Garage",,51.568956423,-3.016729447,,,,,,
5310AWB30502,,"Maesglas McDonald`s",,51.575249931,-3.008471389,,,,,,
5310AWB30503,,"Maesglas McDonald`s",,51.574797333,-3.008822127,,,,,,
5310AWB30500,,"Maesglas Post Office",,51.572826926,-3.012097319,,,,,,
5310AWB30499,,"Maesglas Shops",,51.570697722,-3.013969078,,,,,,
5710AWA10861,,"Maes-y-Coed Road",,51.518990746,-3.201079423,,,,,,
5710WDB25438,,Maes-yr-Onnen,,51.521056915,-3.323245677,,,,,,
5710WDB46609,,"Magretion Place",,51.471233264,-3.169200457,,,,,,
5710AWA10842,,"Maindy Stadium",,51.496636925,-3.192265905,,,,,,
5710AWA10606,,"Maitland Street",,51.503818373,-3.195121166,,,,,,
5710AWA10207,,"Manorbier Cres",,51.509737348,-3.124060107,,,,,,
5710AWA10206,,"Manorbier Cres",,51.509718264,-3.124174916,,,,,,
5710AWA11450,,"Mansell Ave",,51.473566409,-3.272411383,,,,,,
5710AWA11393,,"Maple Drive",,51.495608369,-3.257164684,,,,,,
5720AWA12376,,"Maple Road",,51.434930686,-3.1899534,,,,,,
5710AWA10133,,"Mardy Road",,51.503674339,-3.121504755,,,,,,
5720AWA11814,,"Maslin Park",,51.393394546,-3.274770484,,,,,,
5710AWA11158,,"Master Gunner",,51.501358825,-3.21319329,,,,,,
5710AWA11340,,"Mcclay Court",,51.488984139,-3.235751753,,,,,,
5710AWA11545,,"Mcdonald Rd",,51.475314945,-3.260379149,,,,,,
5710AWA10506,,"Meadow Close",,51.531119551,-3.160109351,,,,,,
5710AWA10187,,"Meadowlane Primary School",,51.517370091,-3.09857984,,,,,,
5720AWA10747,,"Meggitt Road",,51.422095608,-3.278229827,,,,,,
5720VGA02586,,"Meliden Road",,51.435064531,-3.182058742,,,,,,
5710AWA10267,,"Melrose Avenue",,51.499245322,-3.161734372,,,,,,
5710AWA10648,,"Melrose Court",,51.499993731,-3.163338156,,,,,,
5720AWA10741,,"Melville Close",,51.423776822,-3.274815627,,,,,,
5720AWA10740,,"Melville Close",,51.42406427,-3.274156829,,,,,,
5710WDB23367,,"Menai Way",,51.520397991,-3.111235431,,,,,,
5710AWA10792,,"Mercia Road",,51.483144863,-3.139334009,,,,,,
5710AWA10793,,"Mercia Road",,51.482653087,-3.139048125,,,,,,
5710AWA11648,,"Mermiad Quay",,51.464147905,-3.165813435,,,,,,
5710AWA11647,,"Mermiad Quay",,51.463287406,-3.16619025,,,,,,
5720AWA12359,,"Merrie Harrier",,51.444195007,-3.198525641,,,,,,
5720AWA10387,,"Merrie Harrier",,51.444059293,-3.199486167,,,,,,
5720AWA10386,,"Merrie Harrier",,51.44548493,-3.19812773,,,,,,
5720AWA12390,,"Merrie Harrier",,51.444600842,-3.19752901,,,,,,
5720AWA10748,,"Merthyr Dyfan Road",,51.425157836,-3.272738125,,,,,,
5720AWA10739,,"Merthyr Dyfan Road",,51.42562032,-3.270805603,,,,,,
5710AWA11069,,"Merthyr Road Shops",,51.512578094,-3.219515119,,,,,,
5710AWA11070,,"Merthyr Road Shops",,51.512438757,-3.219079073,,,,,,
5710AWA10790,,"Mervyn Road",,51.484152062,-3.142095458,,,,,,
5710AWA10789,,"Mervyn Road",,51.484351501,-3.141005901,,,,,,
5710WDB21693,,"Meteor Court",,51.482469965,-3.162287227,,,,,,
5710AWA10772,,"Methodist Church",,51.483050395,-3.149931125,,,,,,
5720AWA10420,,"Michaelston Close",,51.420919938,-3.258076519,,,,,,
5720AWA10419,,"Michaelston Close",,51.42098132,-3.258222025,,,,,,
5710AWA11451,,"Michaelston College",,51.47328138,-3.270502845,,,,,,
5710AWA11453,,"Michaelston Road",,51.473878159,-3.269367531,,,,,,
5710CBZ02503,,"Mill Place",,51.54149638,-3.177230169,,,,,,
5710WDB48459,,"Mill Road",,51.532868083,-3.179530533,,,,,,
5710AWA11564,,"Mill Road",,51.483832322,-3.233135342,,,,,,
5710WDB23368,,"Mill Road",,51.543740018,-3.177319953,,,,,,
5710WDB25076,,"Millennium Centre",,51.465043009,-3.164162019,,,,,,
5720AWA11994,,"Milton Rd",,51.438615911,-3.186553022,,,,,,
5720AWA11995,,"Milton Rd",,51.438665916,-3.186942781,,,,,,
5720AWL26199,,"Minehead Avenue",,51.40651694,-3.216992782,,,,,,
5720AWA12384,,"Monmouth House",,51.431150697,-3.182288566,,,,,,
5710AWA10516,,"Monthermer Road",,51.495752186,-3.17927786,,,,,,
5710WDB48446,,Morrison's,,51.525949919,-3.20025352,,,,,,
5710AWA10931,,Morrison's,,51.526615581,-3.200227782,,,,,,
5710WDB48447,,Morrison's,,51.525853247,-3.200034752,,,,,,
5710WDB48547,,"Mortimer Avenue",,51.537042504,-3.124372349,,,,,,
5710AWA11531,,"Mostyn Road",,51.475364551,-3.26328915,,,,,,
5710AWA10118,,"Mount Pleasant Ave",,51.519384206,-3.118561321,,,,,,
5710AWA10064,,"Mount Pleasant Avenue",,51.519928812,-3.11613886,,,,,,
5710CAA02562,,"Mount Stuart Square",,51.464643477,-3.168168245,,,,,,
5710CAA02563,,"Mount Stuart Square",,51.464511214,-3.167905745,,,,,,
5710WDB48432,,"Mount Stuart Square",,51.464445887,-3.169948256,,,,,,
5710AWA10775,,"Muirton Road",,51.48612489,-3.1435706,,,,,,
5710WDB48479,,"Mullins Avenue",,51.514145004,-3.113518724,,,,,,
5720WDB48452,,"Murch Crescent",,51.432857838,-3.20567621,,,,,,
5710AWA11312,,"Mynachdy Road",,51.502372417,-3.202961987,,,,,,
5710AWA10849,,"Mynachdy Road",,51.50346945,-3.202083181,,,,,,
5720AWA10009,,"Myrtle Grove",,51.417158113,-3.248280513,,,,,,
5720AWA11802,,"Nant Talwg",,51.406581769,-3.294834532,,,,,,
5720AWA11708,,"Nant Talwg Way",,51.406892185,-3.296013071,,,,,,
5710AWA11516,,"Narberth Road",,51.477938121,-3.241227512,,,,,,
5710AWA10922,,"Nat West",,51.529142536,-3.187838778,,,,,,
5710AWA11649,,"Nat West Building",,51.465575593,-3.166017541,,,,,,
5710AWA10765,,"Neilson Close",,51.480226631,-3.15818362,,,,,,
5710AWA11476,,"Nesta Road",,51.482762903,-3.214989456,,,,,,
5710AWA11754,,"Neville Street",,51.480721793,-3.192210754,,,,,,
5710AWA11753,,"Neville Street",,51.48057541,-3.191573304,,,,,,
5710AWA10204,,"Nevin Crescent",,51.510476281,-3.122954312,,,,,,
5710AWA10205,,"Nevin Crescent",,51.510419722,-3.123226712,,,,,,
5710AWA10212,,"New Road",,51.504429614,-3.121508894,,,,,,
5710AWA10213,,"New Road",,51.504543587,-3.121814265,,,,,,
5710AWA10927,,"Newborough Ave",,51.528376669,-3.194190629,,,,,,
5710AWA10928,,"Newborough Ave",,51.528258045,-3.194360514,,,,,,
5710AWA10609,,"Newfoundland Rd",,51.502509295,-3.190430937,,,,,,
5710AWA10608,,"Newfoundland Road",,51.502839421,-3.190684473,,,,,,
5710AWA11502,,"Newgale Place",,51.472363294,-3.243754234,,,,,,
5710AWA11520,,"Newgale Place",,51.472290175,-3.243017938,,,,,,
5710AWA10680,,"Newlands Court",,51.531509579,-3.184065534,,,,,,
5710AWA10681,,"Newlands Court",,51.531568171,-3.183605717,,,,,,
5310AWB32203,,"Newport (Friars Walk Bus Stn)",,51.587794395,-2.994646782,,,,,,
5720AWA10023,,"Newton Street",,51.411692039,-3.259102891,,,,,,
5710WDB48418,,"Ninian Park",,51.473767554,-3.20048138,,,,,,
5710AWA11574,,"Ninian Park",,51.475560142,-3.201925169,,,,,,
5710WDB24009,,"Ninian Park PH",,51.477820798,-3.200688617,,,,,,
5710WDB25075,,"Ninian Park PH",,51.47765707,-3.200871514,,,,,,
5710AWA11586,,"Ninian Park School",,51.469334868,-3.195167619,,,,,,
5710AWA10552,,"Ninian Road",,51.501866592,-3.175704198,,,,,,
5710AWA10551,,"Ninian Road",,51.501710122,-3.175167098,,,,,,
5710AWA11339,,"Norbury Road",,51.488811894,-3.234177127,,,,,,
5710CAA02605,,"North Church Street",,51.474198636,-3.172098433,,,,,,
5710AWA11663,,"North Church Street",,51.473941247,-3.171760666,,,,,,
5710AWA11656,,"North Clive St",,51.468818298,-3.188488294,,,,,,
5710CBZ02526,,"North Clive Street",,51.468803091,-3.188214356,,,,,,
5710AWA10844,,"North Road Clinic",,51.501363227,-3.196135166,,,,,,
5720AWA11976,,Northcliffe,,51.443666962,-3.168899035,,,,,,
5720AWA11977,,Northcliffe,,51.443784115,-3.168873249,,,,,,
5710AWA10616,,"Northcote Lane",,51.490012145,-3.169724109,,,,,,
5720AWA10002,,Norwood,,51.414898554,-3.244293173,,,,,,
5720AWA10027,,Norwood,,51.415029443,-3.243822181,,,,,,
5710AWA10216,,"Nursery School",,51.505256567,-3.129035996,,,,,,
5710AWA11198,,"Oak Tree Close",,51.519386039,-3.266914093,,,,,,
5710AWA10051,,"Oakfield Street",,51.48979187,-3.157489812,,,,,,
5710AWA11759,,"Ocean Way Business Park",,51.474496291,-3.153877206,,,,,,
5710AWA11060,,"Odet Court",,51.523135472,-3.236604152,,,,,,
5710AWA10097,,"Okehampton Avenue",,51.528874536,-3.118145231,,,,,,
5720AWA10732,,"Old Port Road",,51.44530529,-3.263193142,,,,,,
5720AWA10731,,"Old Port Road",,51.445299091,-3.262933956,,,,,,
5710WDB47295,,"O'Leary Drive",,51.45433091,-3.18239812,,,,,,
5710WDB47293,,"Olympian Drive",,51.450155952,-3.182664408,,,,,,
5710AWA10903,,"Orchard Castle",,51.537749524,-3.199150928,,,,,,
5720AWA10431,,"Orchard Drive",,51.41146101,-3.269679551,,,,,,
5710AWA10768,,"Ordell St",,51.481351663,-3.153517422,,,,,,
5710AWA10208,,"Oswestry Close (Caeglas Road)",,51.507116645,-3.124485505,,,,,,
5710AWA11421,,"Palace Road",,51.489314988,-3.214414679,,,,,,
5710CBZ02531,,"Palace Road",,51.492140134,-3.215987825,,,,,,
5720AWA10403,,"Palmerston Sch",,51.411726814,-3.241518144,,,,,,
5720AWA10404,,"Palmerston Sch",,51.411853733,-3.241420928,,,,,,
5710AWA10360,,Panasonic,,51.528950505,-3.137363512,,,,,,
5710AWA10359,,Panasonic,,51.5299102,-3.138540732,,,,,,
5710AWA10363,,"Pant Glas",,51.525224133,-3.136823782,,,,,,
5710AWA10364,,"Pant Glas",,51.525113602,-3.137094909,,,,,,
5710AWA14483,,"Pant y Gored",,51.520912783,-3.313670862,,,,,,
5710AWA14482,,"Pant y Gored",,51.521827229,-3.31632051,,,,,,
5710AWA10990,,"Pantbach Avenue",,51.512033413,-3.202610254,,,,,,
5710AWA14476,,Parc-y-Coed,,51.521727414,-3.321996696,,,,,,
5720AWA11809,,"Park Avenue",,51.394654983,-3.2877851,,,,,,
5720AWA11805,,"Park Crescent",,51.399024736,-3.288640983,,,,,,
5310GWX16404,,"Park Drive",,51.569044072,-3.016991115,,,,,,
5720AWA11710,,"Park Hotel",,51.400313847,-3.288346582,,,,,,
5710AWA11206,,"Park Road",,51.518329297,-3.259836941,,,,,,
5710AWA11205,,"Park Road",,51.51833101,-3.260514387,,,,,,
5710WDB48535,,"Park Street",,51.478014168,-3.179871409,,,,,,
5710AWA11544,,"Parker Road",,51.47601929,-3.257590689,,,,,,
5710AWA10843,,"Parkfield Place",,51.498975031,-3.194012495,,,,,,
5710WDB48586,,"Parkway 1",,51.501959975,-3.111719954,,,,,,
5710WDB48585,,"Parkway 2",,51.504515916,-3.110152748,,,,,,
5710WDB48584,,"Parkway 3",,51.501929981,-3.111270002,,,,,,
5710AWA10821,,"Pearl Street",,51.484181111,-3.155648294,,,,,,
5710AWA10857,,"Pedair Erw Road",,51.513651456,-3.200016639,,,,,,
5720AWA12041,,"Penarth Cemetery",,51.424581867,-3.181860099,,,,,,
5720AWA12362,,"Penarth Health Centre",,51.434643616,-3.182245974,,,,,,
5720AWA12386,,"Penarth Library",,51.437810901,-3.173626784,,,,,,
5720AWA11957,,"Penarth Marina Tesco",,51.446253633,-3.186204213,,,,,,
5720AWA12334,,"Penarth Pier",,51.435605122,-3.167599819,,,,,,
5720AWA12335,,"Penarth Pier",,51.435390802,-3.167450488,,,,,,
5720AWA12329,,"Penarth Police Station",,51.440292134,-3.179057135,,,,,,
5720AWA12341,,"Penarth RFC",,51.427817545,-3.183784768,,,,,,
5720AWA12340,,"Penarth RFC",,51.427744321,-3.183912332,,,,,,
5710AWA11589,,"Penarth Road",,51.467694838,-3.191093687,,,,,,
5720AWA12366,,"Penarth Station",,51.43624464,-3.175586393,,,,,,
5720AWA12365,,"Penarth Station",,51.436188433,-3.176707116,,,,,,
5720AWA12337,,"Penarth Yacht Club",,51.432835395,-3.168521801,,,,,,
5710AWA11419,,"Pencisely Rise",,51.489258331,-3.219007888,,,,,,
5710AWA11418,,"Pencisely Road",,51.489136527,-3.219479953,,,,,,
5720AWA10417,,"Pencoedtre Fields",,51.419072964,-3.255897338,,,,,,
5720AWM26346,,"Pencoedtre Lane",,51.427577309,-3.261956119,,,,,,
5720AWA10738,,"Pencoedtre Lane",,51.427314294,-3.262164632,,,,,,
5720WDB24186,,"Pencoedtre Road",,51.421274602,-3.256029611,,,,,,
5720WDB24185,,"Pencoedtre Road",,51.421284824,-3.255914834,,,,,,
5720AWA11871,,"Pendine Close",,51.419509312,-3.269643739,,,,,,
5720AWA11872,,"Pendine Close",,51.419268109,-3.270327368,,,,,,
5710AWA11562,,"Pendine Road",,51.482051074,-3.236629992,,,,,,
5710AWA11561,,"Pendoylan Court",,51.4838566,-3.237658167,,,,,,
5710WDB25133,,Penffordd,,51.529208933,-3.293755831,,,,,,
5710CAA02561,,"Pengam Green (Tesco Extra)",,51.488884458,-3.129754891,,,,,,
5710AWA10782,,"Pengam Road",,51.492724665,-3.139904181,,,,,,
5710AWA11245,,Penhill,,51.488736315,-3.207759367,,,,,,
5710AWA11067,,"Penlline Court",,51.514852209,-3.223049055,,,,,,
5710AWA11526,,"Penmark Rd",,51.475091459,-3.263598384,,,,,,
5710AWA10281,,Pensylvania,,51.51421212,-3.158570001,,,,,,
5710AWA10280,,Pensylvania,,51.513898907,-3.158417941,,,,,,
5710AWA11631,,"Pentre Street",,51.470506717,-3.186197615,,,,,,
5710AWA11194,,Pentwyn,,51.522153261,-3.264627019,,,,,,
5710AWA11195,,Pentwyn,,51.522222067,-3.264917205,,,,,,
5710AWA10338,,"Pentwyn Drive",,51.530319867,-3.144490497,,,,,,
5710AWA10339,,"Pentwyn Drive",,51.53043421,-3.14383021,,,,,,
5710AWZ26208,,"Pentyrch (Shops)",,51.530973291,-3.298462473,,,,,,
5710AWA14488,,"Pentyrch (Shops)",,51.531056586,-3.298248591,,,,,,
5710WDB25135,,"Pentyrch War Memorial",,51.531313098,-3.296194278,,,,,,
5710AWA14485,,"Penuel Road",,51.527055939,-3.300614241,,,,,,
5710AWA10472,,"Penylan Oval",,51.504732409,-3.161528145,,,,,,
5710WDB23786,,"Penylan Oval",,51.50461426,-3.161654815,,,,,,
5710WDB48522,,"Pen-y-Lan Road",,51.495717072,-3.164799447,,,,,,
5710AWA10271,,"Penylan Terrace",,51.503897215,-3.159605042,,,,,,
5710AWA10545,,"Pen-y-wain Place",,51.497828377,-3.16769129,,,,,,
5710AWA11402,,"Peter Lea Primary",,51.49595357,-3.242494829,,,,,,
5710AWA10860,,"Phoenix Estate",,51.516341806,-3.200721488,,,,,,
5710AWA10238,,"Piercefield Place",,51.486422689,-3.160846682,,,,,,
5710AWA11386,,"Pinehurst Road",,51.493183376,-3.2484839,,,,,,
5710AWA11385,,"Pinehurst Road",,51.493195431,-3.248196134,,,,,,
5710AWA11068,,"Plas y Llan",,51.514376395,-3.222113977,,,,,,
5720AWA12327,,"Plassey Street",,51.441378017,-3.181948394,,,,,,
5720AWA12328,,"Plassey Street",,51.441215125,-3.181569659,,,,,,
5720AWA11816,,"Plymouth Road",,51.393758077,-3.271934629,,,,,,
5710AWA11556,,"Plymouthwood Rd",,51.483425176,-3.246129079,,,,,,
5310AWB30510,,"Police Station",,51.581990957,-2.992975749,,,,,,
5710AWA11208,,"Police Station",,51.518850117,-3.256550766,,,,,,
5310AWB30511,,"Police Station",,51.581617407,-2.992491334,,,,,,
5710AWA11640,,"Pomeroy Street",,51.464374268,-3.171717083,,,,,,
5710AWA10357,,"Pontprennau Asda",,51.534211538,-3.128901785,,,,,,
5710AWA10358,,"Pontprennau Asda",,51.534383421,-3.129727843,,,,,,
5720AWA11791,,"Pontypridd Road",,51.404218423,-3.291432337,,,,,,
5710AWA11367,,"Poplar Road",,51.492845658,-3.243879585,,,,,,
5710AWA11366,,"Poplar Road",,51.492663297,-3.243269627,,,,,,
5710AWA10151,,"Port Madoc Road",,51.516421385,-3.105762976,,,,,,
5710AWA10995,,"Porthamal Gardens",,51.519277881,-3.209014102,,,,,,
5710AWA11761,,"Portmanmoor Road",,51.475371902,-3.147117356,,,,,,
5720AWA11960,,Portway,,51.444102181,-3.175730644,,,,,,
5720AWA11961,,Portway,,51.444160594,-3.175223053,,,,,,
5720AWA10440,,"Post Office",,51.432912478,-3.209666962,,,,,,
5720AWA10439,,"Post Office",,51.433285206,-3.209274004,,,,,,
5310AWB31068,,"Pound Hill",,51.550712352,-3.064364588,,,,,,
5310AWB31067,,"Pound Hill",,51.551378964,-3.062245555,,,,,,
5710AWA11583,,"Powderham Drive",,51.470751413,-3.192929817,,,,,,
5710AWA10361,,"Premier Inn",,51.527935604,-3.136314707,,,,,,
5710AWA10362,,"Premier Inn",,51.52792452,-3.136530665,,,,,,
5710AWA11521,,"Prendergast Place",,51.471451298,-3.246652204,,,,,,
5710AWA10237,,"Priest Road",,51.489903015,-3.157161344,,,,,,
5710AWA10550,,"Promenade East",,51.506220053,-3.173770225,,,,,,
5710AWA10573,,"Promenade East",,51.506912394,-3.173773611,,,,,,
5710CAA02622,,"Prospect Place",,51.452552853,-3.180380482,,,,,,
5710AWA11379,,"Pwllmelin Road",,51.495878288,-3.237710119,,,,,,
5710AWA11378,,"Pwllmelin Road",,51.496078638,-3.237470651,,,,,,
5710AWA10132,,"Quarry Dale",,51.501967203,-3.126058797,,,,,,
5710AWA10131,,"Quarry Dale",,51.50180828,-3.12762528,,,,,,
5710AWA11108,,"Queen Street Station Stop HF",,51.48134147,-3.170549009,,,,,,
5710AWA10277,,Queenwood,,51.507375134,-3.150673236,,,,,,
5710AWA10276,,Queenwood,,51.507545513,-3.150720757,,,,,,
5710AWA10471,,"Queenwood Close",,51.50687435,-3.163153205,,,,,,
5710AWA10470,,"Queenwood Close",,51.507164446,-3.162915639,,,,,,
5710AWA11472,,"Radnor Court",,51.482056636,-3.207132818,,,,,,
5710AWA11473,,"Radnor Court",,51.48219612,-3.207183306,,,,,,
5710AWA11223,,"Radyr Chain",,51.502468509,-3.244588276,,,,,,
5710AWA11222,,"Radyr Chain",,51.502927696,-3.245378812,,,,,,
5710AWA11226,,"Radyr Court",,51.50469093,-3.23936096,,,,,,
5710AWA11248,,"Radyr Court Road",,51.499670375,-3.227684889,,,,,,
5710AWA11432,,"Railway Terrace",,51.479310257,-3.199244504,,,,,,
5720AWA12031,,"Raisdale Road",,51.428648195,-3.172715883,,,,,,
5720AWA12032,,"Raisdale Road",,51.428654738,-3.172960585,,,,,,
5720AWA11870,,"Ramsey Road",,51.418547839,-3.267920096,,,,,,
5720AWA11869,,"Ramsey Road",,51.419057745,-3.268164313,,,,,,
5720AWA10375,,"Rectory Lodge",,51.455403761,-3.20769962,,,,,,
5720AWA10376,,"Rectory Lodge",,51.455468856,-3.208363409,,,,,,
5720AWA12367,,"Rectory Road",,51.437293244,-3.173239449,,,,,,
5710AWA11541,,"Red House Road",,51.479763096,-3.247195687,,,,,,
5710AWA11537,,"Red House Road",,51.479880521,-3.247990923,,,,,,
5720AWA12357,,"Redlands Heights",,51.438822671,-3.192759432,,,,,,
5720AWA12356,,"Redlands Heights",,51.439334785,-3.192801551,,,,,,
5720WDB48426,,"Redlands Road",,51.434889498,-3.187808763,,,,,,
5720WDB48383,,"Redlands Road (St Cyres School)",,51.436669122,-3.190545287,,,,,,
5720AWA12355,,"Redlands Road (St Cyres School)",,51.437010508,-3.191460547,,,,,,
5710AWA11536,,"Resurrection Church",,51.479126766,-3.250375202,,,,,,
5710AWA10999,,"Rhiwbina (Shopping Centre)",,51.522517157,-3.212285398,,,,,,
5710AWA10998,,"Rhiwbina (Shopping Centre)",,51.522652445,-3.212245749,,,,,,
5710AWA11026,,"Rhiwbina Hill",,51.530500158,-3.223713534,,,,,,
5710AWA11027,,"Rhiwbina Hill",,51.530758895,-3.223907889,,,,,,
5710AWA10996,,"Rhiwbina Stn",,51.520173775,-3.210205305,,,,,,
5710AWA10534,,"Rhydhelig Ave",,51.5096813,-3.196079261,,,,,,
5710AWA10533,,"Rhydhelig Ave",,51.509781947,-3.195908978,,,,,,
5710AWA12453,,Rhydlafar,,51.510781497,-3.279269978,,,,,,
5710WDB48511,,Rhydlafar,,51.511441826,-3.279735207,,,,,,
5710AWA10957,,"Rhydypenau Crossroads",,51.519597964,-3.17934613,,,,,,
5710AWA10958,,"Rhydypenau Crossroads",,51.519699765,-3.179371677,,,,,,
5710AWA10565,,"Rhydypenau Library",,51.519393223,-3.178245455,,,,,,
5710AWA10566,,"Rhydypenau Library",,51.519569828,-3.1785671,,,,,,
5710AWA10666,,"Rhydypenau Road",,51.524239986,-3.171048023,,,,,,
5710AWA10665,,"Rhydypenau Road",,51.52444423,-3.17040461,,,,,,
5710AWA10201,,"Rhyl Road",,51.51044939,-3.121065931,,,,,,
5710AWA10203,,"Rhyl Road",,51.510658117,-3.121805973,,,,,,
5710AWA10627,,"Richards Terrace",,51.488456108,-3.154344892,,,,,,
5710AWA10245,,"Richmond Crescent",,51.48599689,-3.170211834,,,,,,
5710AWA10246,,"Richmond Crescent",,51.485738347,-3.169989178,,,,,,
5710AWA10259,,"Roath Court Place",,51.49321441,-3.159650791,,,,,,
5710AWA10256,,"Roath Court Place",,51.493323852,-3.159495117,,,,,,
5710AWA11399,,"Roche Crescent",,51.496639113,-3.248218194,,,,,,
5710AWA11398,,"Roche Crescent",,51.496683537,-3.249526453,,,,,,
5710WDB48548,,"Rogers Avenue",,51.536222412,-3.121671791,,,,,,
5710AWA11442,,"Romilly Place",,51.485142175,-3.209248624,,,,,,
5720AWA11848,,"Romilly Schools",,51.402020112,-3.286913794,,,,,,
5720AWA11847,,"Romilly Schools",,51.402217562,-3.28694809,,,,,,
5710AWA11115,,Rosemount,,51.489693479,-3.187115486,,,,,,
5710AWA10323,,Roundwood,,51.515518543,-3.151916123,,,,,,
5710AWL26181,,"Rover Way",,51.493945214,-3.143838358,,,,,,
5710AWL26187,,"Rover Way",,51.493705224,-3.143718263,,,,,,
5710CBZ02487,,"Rowan Way",,51.540473354,-3.171637795,,,,,,
5710AWA10695,,"Rowan Way",,51.54009715,-3.172392364,,,,,,
5710AWA11247,,"Rowing Club",,51.497085517,-3.223783432,,,,,,
5310AWB30508,,"Royal Gwent Hospital",,51.579569559,-2.996109643,,,,,,
5310AWB30509,,"Royal Gwent Hospital",,51.580419923,-2.994803233,,,,,,
5710WDB48391,,"Royal Hotel",,51.477886405,-3.178269727,,,,,,
5710AWA10053,,"Royal Oak",,51.491487648,-3.14963931,,,,,,
5710AWA10223,,"Royal Oak",,51.491708521,-3.148204448,,,,,,
5720AWA10725,,"Ruhr Cross",,51.461988221,-3.269598939,,,,,,
5720AWA10726,,"Ruhr Cross",,51.461982661,-3.269282096,,,,,,
5710AWA10769,,"Ruperra Square",,51.48083175,-3.152438645,,,,,,
5720AWA11701,,"Rutland Close",,51.419145759,-3.29383776,,,,,,
5710AWA10899,,Sainsbury's,,51.538100343,-3.192080477,,,,,,
5710AWA10235,,Sainsbury's,,51.495913947,-3.144809602,,,,,,
5710AWA10900,,Sainsbury's,,51.537925487,-3.193359183,,,,,,
5710AWA10234,,Sainsbury's,,51.496092194,-3.14497253,,,,,,
5710AWA10178,,"Sanderling Drive",,51.525976895,-3.104149381,,,,,,
5720AWA11702,,"Sandringham Close",,51.41969992,-3.291696156,,,,,,
5710AWA10763,,"Sanquhar St",,51.479581144,-3.160716132,,,,,,
5710AWA10764,,"Sanquhar St",,51.479537621,-3.160571024,,,,,,
5710AWA11179,,Securicor,,51.538844349,-3.266099065,,,,,,
5710AWA11180,,Securicor,,51.539014594,-3.267819683,,,,,,
5710AWA11582,,"Sevenoaks Park",,51.470552178,-3.193068595,,,,,,
5710AWA11546,,"Sevenoaks Road",,51.476309974,-3.260665772,,,,,,
5710CAA02574,,"Sevenoaks Road",,51.475815716,-3.260637743,,,,,,
5720AWA11878,,"Shakespeare Road",,51.421733984,-3.272625011,,,,,,
5720AWA11877,,"Shakespeare Road",,51.421943706,-3.272357573,,,,,,
5710AWA11389,,"Shamrock Rd",,51.490604677,-3.253353999,,,,,,
5710AWA10103,,"Shaw Close",,51.525653829,-3.125835932,,,,,,
5710AWA11220,,"Shepley Court",,51.506603606,-3.249772938,,,,,,
5710AWA11219,,"Shepley Court",,51.506628578,-3.249960939,,,,,,
5720AWA11700,,"Sherbourne Close",,51.417881477,-3.2951395,,,,,,
5720AWA11810,,"Ship Hotel",,51.39482627,-3.286108166,,,,,,
5720AWA11831,,"Ship Hotel",,51.393857782,-3.286684691,,,,,,
5310AWB30498,,Shops,,51.57024598,-3.014218744,,,,,,
5710AWA10102,,"Siloam Baptist",,51.526200126,-3.125128658,,,,,,
5710AWA10346,,"Sindercombe Cl",,51.534163078,-3.142265676,,,,,,
5710AWA10345,,"Sindercombe Cl",,51.533912912,-3.14210082,,,,,,
5710AWA10788,,"Skaithmuir Road",,51.488175377,-3.142613698,,,,,,
5710AWA11279,,"Sloper Road",,51.469748226,-3.197080165,,,,,,
5710AWA11779,,"Sloper Road",,51.466741943,-3.191068869,,,,,,
5710AWM26287,,"Sloper Road",,51.46958017,-3.197563977,,,,,,
5710AWA11690,,"Smeaton Street",,51.477242602,-3.193027197,,,,,,
5710AWA11689,,"Smeaton Street",,51.477184122,-3.193472061,,,,,,
5710AWA11548,,"Snowden Road",,51.479662402,-3.256625277,,,,,,
5710CAA02571,,"Snowden Road",,51.479229716,-3.257563807,,,,,,
5710AWA11532,,"Snowden Road",,51.475577338,-3.260227992,,,,,,
5710AWA11771,,"Sophia Gardens",,51.483982594,-3.191647731,,,,,,
5710AWA11780,,"Sorting Office",,51.465405406,-3.192516844,,,,,,
5710AWA11781,,"Sorting Office",,51.464639396,-3.192930758,,,,,,
5710AWA11607,,"South Clive St",,51.460330262,-3.184899468,,,,,,
5710AWA11667,,"South Loudon Place",,51.470024973,-3.168636858,,,,,,
5710AWA11666,,"South Loudon Place",,51.47024426,-3.169189566,,,,,,
5710AWA10685,,"South Rise",,51.533840648,-3.176701008,,,,,,
5710AWM26305,,"Southcourt Road",,51.498528336,-3.156802275,,,,,,
5720AWA10396,,Southra,,51.429454588,-3.219688044,,,,,,
5710AWA10796,,"Splott Clinic",,51.481722749,-3.144094105,,,,,,
5710AWA10771,,"Splott Rd",,51.482543583,-3.150264006,,,,,,
5710WDB21926,,"Sports Village, Morrisons",,51.451519916,-3.182052041,,,,,,
5710WDB47294,,"Sports Village, Morrisons",,51.451744076,-3.182115398,,,,,,
5710AWA10968,,"St Ambrose Road",,51.512768832,-3.196635703,,,,,,
5720AWA10735,,"St Andrews X",,51.441005876,-3.264973755,,,,,,
5720AWA10734,,"St Andrews X",,51.440567104,-3.26480336,,,,,,
5710AWA10969,,"St Augustine Road",,51.512624559,-3.196675155,,,,,,
5720AWA11885,,"St David`s Church",,51.417107334,-3.282131673,,,,,,
5720AWA11886,,"St David`s Church",,51.416981641,-3.282113774,,,,,,
5720AWA12003,,"St Davids Crescent",,51.433394128,-3.195149929,,,,,,
5720AWA12002,,"St Davids Crescent",,51.4344914,-3.194243466,,,,,,
5710AWA11540,,"St Davids Crescent",,51.481292514,-3.242888311,,,,,,
5720AWA12004,,"St Davids Crescent",,51.434318188,-3.196238627,,,,,,
5710AWA11082,,"St Davids Hospital",,51.481400706,-3.189969235,,,,,,
5710AWA10963,,"St Denis Road",,51.515829619,-3.188328236,,,,,,
5710AWA10962,,"St Denis Road",,51.515982295,-3.188346622,,,,,,
5710AWA10493,,"St Ederyn's Road",,51.520094029,-3.163893615,,,,,,
5710AWA10494,,"St Edeyrn's Rd",,51.520325183,-3.164158947,,,,,,
5710CBZ02475,,"St Fagans Church (NE)",,51.486697049,-3.266382125,,,,,,
5710CBZ02476,,"St Fagans Church (SW)",,51.486565443,-3.266911378,,,,,,
5710AWA11347,,"St Fagans Rise",,51.489205641,-3.24879292,,,,,,
5710AWA11543,,"St Francis Road",,51.477175809,-3.25455536,,,,,,
5710AWA11535,,"St Francis School",,51.477564815,-3.254335638,,,,,,
5720AWA12371,,"St Garmon Rd",,51.431095766,-3.189494111,,,,,,
5710AWA10983,,"St Gowan Ave",,51.514165628,-3.19368917,,,,,,
5710AWA10982,,"St Gowan Avenue",,51.514279558,-3.193980376,,,,,,
5720AWA11751,,"St Helen`s",,51.408386646,-3.263771232,,,,,,
5710AWA10138,,"St Hilary Church",,51.50980374,-3.11994052,,,,,,
5710AWA10076,,"St Illtyds H S",,51.518700585,-3.116699747,,,,,,
5710AWA10980,,"St Ina Road",,51.516707599,-3.193957407,,,,,,
5720AWA11991,,"St Josephs",,51.438914421,-3.181035916,,,,,,
5720AWA11990,,"St Josephs",,51.43901693,-3.18067887,,,,,,
5710AWA10971,,"St Josephs Convent",,51.501321511,-3.195817114,,,,,,
5720AWA10004,,"St Julian Close",,51.41606747,-3.245144608,,,,,,
5720AWA10003,,"St Julian Close",,51.415750241,-3.245380453,,,,,,
5720AWA12368,,"St Luke's Ave 1",,51.42955979,-3.190216602,,,,,,
5720AWA12369,,"St Luke's Avenue",,51.430534381,-3.188990439,,,,,,
5710AWA10979,,"St Malo Road",,51.517186535,-3.193724925,,,,,,
5710AWA11436,,"St Mary's School",,51.483559495,-3.198751126,,,,,,
5720AWA12014,,"St Marys Well Bay",,51.410703595,-3.186664102,,,,,,
5720AWA12013,,"St Marys Well Bay",,51.411066239,-3.186371537,,,,,,
5710AWA10163,,"St Mellons Police Station",,51.524726601,-3.101498853,,,,,,
5310AWA10068,,"St Olaves",,51.538161098,-3.091625974,,,,,,
5710AWA10620,,"St Peter's Street",,51.487405165,-3.166949641,,,,,,
5710AWA10801,,"St Saviours",,51.483321388,-3.151637326,,,,,,
5710AWA10802,,"St Saviours",,51.483456658,-3.15159753,,,,,,
5710AWA10462,,"St Teilo's",,51.504424914,-3.153509361,,,,,,
5310AWB30497,,"St Thomas` Church",,51.569211394,-3.01532114,,,,,,
5720AWA12005,,"St. David's Crescent",,51.435168893,-3.194822209,,,,,,
5710WDB48541,,"St. Edeyrns",,51.533566036,-3.122397561,,,,,,
5710CBZ02477,,"St. Fagans Museum",,51.486292726,-3.273202518,,,,,,
5710AWA10236,,"Stacey Road",,51.491184934,-3.15390969,,,,,,
5710AWA10052,,"Stacey Road",,51.491412084,-3.153670556,,,,,,
5720AWA12363,,"Stanwell Rd",,51.436116316,-3.180301944,,,,,,
5720AWA12364,,"Stanwell Rd",,51.436183299,-3.179900841,,,,,,
5720AWA12346,,"Stanwell Sch",,51.434199049,-3.183172902,,,,,,
5720AWA12345,,"Stanwell Sch",,51.434074006,-3.183347483,,,,,,
5710AWA11598,,Staples,,51.46067194,-3.186678836,,,,,,
5710AWA11599,,Staples,,51.460339325,-3.186670208,,,,,,
5720AWA10394,,Station,,51.431531008,-3.218894617,,,,,,
5710AWA10864,,Station,,51.523017118,-3.202151126,,,,,,
5710AWA10863,,Station,,51.522320371,-3.201700357,,,,,,
5720AWA12392,,"Station Hotel",,51.444187146,-3.186927676,,,,,,
5720AWA12393,,"Station Hotel",,51.444285158,-3.187016554,,,,,,
5720AWA10729,,"Station Rd",,51.44909198,-3.263096194,,,,,,
5710AWA11211,,"Station Road",,51.515842917,-3.251870587,,,,,,
5710AWA10678,,"Station Road",,51.529406981,-3.185697659,,,,,,
5710WDB23567,,"Sterling Close",,51.489958286,-3.132158038,,,,,,
5710AWA11591,,"Stockland St W2",,51.467683861,-3.188631571,,,,,,
5710AWA11633,,"Stockland Street",,51.468688018,-3.183589935,,,,,,
5710AWA10614,,"Strathnairn Street",,51.491860055,-3.1710678,,,,,,
5710AWA10615,,"Strathnairn Street",,51.491893568,-3.171313531,,,,,,
5710AWA11439,,"Suffolk House",,51.485650697,-3.205272629,,,,,,
5710AWA11440,,"Suffolk House",,51.485542419,-3.205746346,,,,,,
5720AWA12021,,"Sully Brook",,51.408163609,-3.227230511,,,,,,
5720AWA12020,,"Sully Brook",,51.408396885,-3.227279892,,,,,,
5720AWA12030,,"Sully Church",,51.407178352,-3.221697471,,,,,,
5720AWA12029,,"Sully Church",,51.407032571,-3.221880495,,,,,,
5720AWA12026,,"Sully Hospital",,51.403081734,-3.237617984,,,,,,
5720AWA12025,,"Sully Hospital",,51.402787565,-3.239076427,,,,,,
5720AWL26198,,"Sully Post Office",,51.404671762,-3.211092391,,,,,,
5720AWL26197,,"Sully Post Office",,51.404658612,-3.211494597,,,,,,
5710AWA10858,,"Summerfield Place",,51.514161202,-3.200289442,,,,,,
5720AWA10443,,"Sunnycroft Lane",,51.431255656,-3.210759626,,,,,,
5720AWA10442,,"Sunnycroft Lane",,51.431245626,-3.210860057,,,,,,
5710AWA14486,,Surgery,,51.530200964,-3.299997478,,,,,,
5720AWA12017,,"Swanbridge Cross",,51.40420822,-3.203719251,,,,,,
5720AWA12018,,"Swanbridge Cross",,51.404306072,-3.203822458,,,,,,
5710AWA10773,,"Swinton Street",,51.485330646,-3.147554531,,,,,,
5710AWA11197,,"Sycamore Tree Close",,51.520657528,-3.267410616,,,,,,
5710WDB48445,,"Taham Road",,51.524149355,-3.196948493,,,,,,
5710AWA11772,,"Talbot Street",,51.484546211,-3.192814585,,,,,,
5710AWA10618,,"Talworth Street",,51.488076233,-3.167283645,,,,,,
5710AWA11370,,"Tangmere Drive",,51.500719226,-3.245044861,,,,,,
5710AWA10192,,"Tarwick Drive",,51.523119013,-3.111604376,,,,,,
5710AWA10193,,"Tarwick Drive",,51.522575121,-3.112066788,,,,,,
5710AWA11350,,"Tatem Drive",,51.488887036,-3.252529102,,,,,,
5710WDB48444,,"Tatham Road",,51.524148178,-3.197063778,,,,,,
5710AWA10062,,"Taunton Crescent",,51.514703674,-3.12376445,,,,,,
5310AWB31063,,"Tavern Farm",,51.55418002,-3.051752585,,,,,,
5310AWB31064,,"Tavern Farm",,51.554567028,-3.050708566,,,,,,
5710AWA10786,,"Taymuir Road",,51.49146207,-3.141212263,,,,,,
5710AWA10779,,"Taymuir Road",,51.490022242,-3.137256495,,,,,,
5720AWA11959,,"Terranova Way",,51.444313705,-3.179736304,,,,,,
5720AWA11958,,"Terranova Way",,51.444299066,-3.180297109,,,,,,
5710AWA11336,,Tesco,,51.499293664,-3.207678319,,,,,,
5710AWA11314,,Tesco,,51.498602068,-3.207602409,,,,,,
5720AWA11696,,Tesco,,51.415386639,-3.291430745,,,,,,
5710WDB25416,,"Thackeray Crescent",,51.524871569,-3.127704951,,,,,,
5710WDB25417,,"Thackeray Crescent",,51.52477793,-3.128091831,,,,,,
5720AWA10751,,"The Alps",,51.457274238,-3.266474266,,,,,,
5720AWA12358,,"The Cowslip",,51.442443167,-3.196609234,,,,,,
5710AWA11024,,"The Deri",,51.528814878,-3.218031688,,,,,,
5710AWA11025,,"The Deri",,51.528767387,-3.218275492,,,,,,
5720AWA12331,,"The Dingle",,51.440637964,-3.180432917,,,,,,
5710AWA11342,,"The Fairwater",,51.48933726,-3.239779892,,,,,,
5710AWA11343,,"The Fairwater",,51.489629036,-3.240248725,,,,,,
5710AWA10343,,"The Farthings",,51.532302777,-3.141238746,,,,,,
5710AWA10344,,"The Farthings",,51.532699022,-3.141176572,,,,,,
5720AWA11807,,"The Grove",,51.395172258,-3.288173353,,,,,,
5720AWA11979,,"The Headlands",,51.442586526,-3.168137617,,,,,,
5720AWA11978,,"The Headlands",,51.442761344,-3.167739192,,,,,,
5710AWA11416,,"The Insole",,51.488422241,-3.22417075,,,,,,
5720AWA10438,,"The Malthouse",,51.433819978,-3.209734096,,,,,,
5720AWA10437,,"The Malthouse",,51.433901478,-3.209678705,,,,,,
5710AWA11765,,"The Maltings",,51.4794462,-3.154347758,,,,,,
5720AWA11962,,"The Marina",,51.444324883,-3.173265866,,,,,,
5710AWA11610,,"The Marl",,51.462721251,-3.183205205,,,,,,
5710AWA10075,,"The Mount",,51.521089914,-3.115071833,,,,,,
5710AWA10697,,"The Oaks",,51.539665415,-3.176894526,,,,,,
5710AWA10702,,"The Paddock",,51.544794091,-3.181035909,,,,,,
5710AWA10621,,"The Parade",,51.485745128,-3.165697457,,,,,,
5710AWA11481,,"The Pendine",,51.478780839,-3.240616784,,,,,,
5710AWA11075,,"The Philog",,51.509418817,-3.206778894,,,,,,
5710AWA11077,,"The Philog",,51.508951675,-3.203236173,,,,,,
5710AWA11076,,"The Philog",,51.509539581,-3.205528426,,,,,,
5710AWA10125,,"The Potteries",,51.501440677,-3.138680965,,,,,,
5720AWA11732,,"The Priory",,51.40056784,-3.280763354,,,,,,
5720AWA11733,,"The Priory",,51.400362688,-3.281433277,,,,,,
5720WDB48436,,"The Quays",,51.395455156,-3.278766273,,,,,,
5720WDB48438,,"The Quays",,51.394604301,-3.278455066,,,,,,
5720AWA12016,,"The Vineyard",,51.406693403,-3.196365724,,,,,,
5720AWA12015,,"The Vineyard",,51.40675101,-3.19600779,,,,,,
5710AWA10696,,"The Woodlands",,51.538820954,-3.175921078,,,,,,
5710CBZ02486,,"The Woodlands",,51.538930418,-3.175765289,,,,,,
5710AWA11441,,"Thompsons Park",,51.48527174,-3.208891996,,,,,,
5710AWA10868,,"Thornhill Road",,51.52754159,-3.20287577,,,,,,
5710AWA10867,,"Thornhill Road",,51.527129259,-3.202749577,,,,,,
5710AWA10869,,"Thornhill Road (Nine Giants)",,51.529394744,-3.202794876,,,,,,
5710AWA10870,,"Thornhill Road (Nine Giants)",,51.529289679,-3.202518201,,,,,,
5710AWA10671,,"Three Arches Ave",,51.521741822,-3.179862763,,,,,,
5710AWA10672,,"Three Arches Ave",,51.52215592,-3.179815812,,,,,,
5720AWA10413,,"Three Bells",,51.415971044,-3.252504794,,,,,,
5720AWA10414,,"Three Bells",,51.416072693,-3.252248724,,,,,,
5710AWA11072,,"Three Elms",,51.510154712,-3.213888101,,,,,,
5710AWA11071,,"Three Elms",,51.510314732,-3.214065277,,,,,,
5710AWA10258,,"Timbers Square",,51.492707357,-3.157275581,,,,,,
5710AWA10257,,"Timbers Square",,51.4927657,-3.156830518,,,,,,
5710AWA10820,,"Tin Street",,51.483938577,-3.15653507,,,,,,
5710WDB25398,,"Ton-yr-Ywen Avenue",,51.519572688,-3.196929368,,,,,,
5710CBZ02490,,"Torrens Drive",,51.510745353,-3.172632862,,,,,,
5710CBZ02489,,"Torrens Drive",,51.510738668,-3.172402127,,,,,,
5710AWA10140,,"Towyn Road",,51.512339702,-3.117188321,,,,,,
5710AWA10139,,"Towyn Road",,51.511743216,-3.118345298,,,,,,
5710WDB48540,,"Training Centre",,51.533505692,-3.124688868,,,,,,
5710AWA10150,,"Trebanog Crescent",,51.516362895,-3.105309746,,,,,,
5310AWB31056,,"Tredegar Park",,51.567675094,-3.023453184,,,,,,
5310AWB30496,,"Tredegar Park",,51.568361213,-3.021073502,,,,,,
5710AWA10127,,"Tredelerch Road",,51.501667926,-3.133788143,,,,,,
5710WDB23365,,"Trefaser Crescent",,51.520098209,-3.110608369,,,,,,
5710AWA14472,,"Tregarth Lodge",,51.526017402,-3.328290688,,,,,,
5720AWA10425,,"Treharne Rd Upper",,51.417822876,-3.265110101,,,,,,
5720AWA10426,,"Treharne Rd Upper",,51.417666033,-3.264645577,,,,,,
5710AWA10617,,"Treharris Street",,51.489829252,-3.169128879,,,,,,
5710AWA10154,,"Tresigin Road",,51.518424274,-3.107862979,,,,,,
5710WDB25092,,"Tresillian Way",,51.474758839,-3.176317267,,,,,,
5710AWA11234,,"Triscombe Drive",,51.499003535,-3.233818579,,,,,,
5710AWA10199,,"Trowbridge Road",,51.515694618,-3.114147401,,,,,,
5710AWA10142,,"Trowbridge Road",,51.514839634,-3.114227415,,,,,,
5710AWA10141,,"Trowbridge Road",,51.514563643,-3.114883602,,,,,,
5710WDB25095,,"Tudor Street",,51.476309414,-3.184852794,,,,,,
5710AWA11684,,"Tudor Street",,51.476391963,-3.185546249,,,,,,
5710AWA11438,,"Turberville Place",,51.484884344,-3.201090211,,,,,,
5710AWA10504,,"Ty Cerrig",,51.530685817,-3.154757586,,,,,,
5710AWA10505,,"Ty Cerrig",,51.530521613,-3.154183404,,,,,,
5710AWA10194,,"Ty Coch Court",,51.520654567,-3.112625353,,,,,,
5710AWA10218,,"Ty Fry Road",,51.507373387,-3.130514833,,,,,,
5710AWA10219,,"Ty Fry Road",,51.507634644,-3.130463664,,,,,,
5710AWA12451,,"Ty Gwyn",,51.508990669,-3.258628227,,,,,,
5710AWA10473,,"Ty Gwyn Rd",,51.506773732,-3.164231314,,,,,,
5710AWM26293,,"Ty Gwyn Sch",,51.505888461,-3.164641005,,,,,,
5710AWA10662,,"Ty Gwyn Sch",,51.505690833,-3.164621557,,,,,,
5720AWA12024,,"Ty Hafan",,51.403424877,-3.234924461,,,,,,
5710AWA10526,,"Ty Maeth",,51.505824149,-3.185416668,,,,,,
5710AWA10525,,"Ty Maeth",,51.505549405,-3.185020505,,,,,,
5710AWA10126,,"Ty Mawr Avenue",,51.501598072,-3.137287381,,,,,,
5710AWA10124,,"Ty Mawr Road",,51.504849577,-3.135797843,,,,,,
5710AWA10058,,"Ty Mawr Road",,51.505627851,-3.135284082,,,,,,
5710CAA02554,,"Ty Nant Road",,51.531389101,-3.258669334,,,,,,
5710AWA11494,,"Ty Newydd Ely 1",,51.470244324,-3.254816973,,,,,,
5710AWA11493,,"Ty Newydd Ely 2",,51.470336957,-3.254563526,,,,,,
5720AWA10399,,"Ty Verlon",,51.414705868,-3.231892317,,,,,,
5720AWA12019,,"Ty Verlon",,51.414155841,-3.230324501,,,,,,
5720AWA10400,,"Ty Verlon",,51.414779971,-3.232541414,,,,,,
5710AWA10862,,"Ty Wern Road",,51.520065495,-3.20149686,,,,,,
5710AWA10548,,"Tydfil Place",,51.500451488,-3.173348251,,,,,,
5710AWA10549,,"Tydfil Place",,51.500607967,-3.17388533,,,,,,
5710AWA10761,,"Tyndall Street",,51.476822658,-3.166852285,,,,,,
5710AWA10762,,"Tyndall Street",,51.477087799,-3.166412665,,,,,,
5720AWA10433,,"Tynewydd Inn",,51.410465212,-3.271952565,,,,,,
5720AWA10434,,"Tynewydd Inn",,51.410211228,-3.271327231,,,,,,
5710AWM26292,,"University Hall",,51.504372342,-3.165193079,,,,,,
5710AWA10661,,"University Hall",,51.504166869,-3.165058163,,,,,,
5710AWA10676,,"Usk Road",,51.526818283,-3.181147235,,,,,,
5710AWA10675,,"Usk Road",,51.52664038,-3.180955232,,,,,,
5710AWA11315,,UWIC,,51.495399154,-3.211263154,,,,,,
5710AWA10072,,"Vaindre Lane",,51.529429919,-3.103337844,,,,,,
5720AWA10724,,"Vale Gate",,51.463311311,-3.270312249,,,,,,
5720WDB48381,,"Vale View Crescent",,51.446688455,-3.196504379,,,,,,
5710AWA11264,,"Velindre Hospital",,51.515846501,-3.227716323,,,,,,
5710AWA11263,,"Velindre Hospital",,51.515758204,-3.22842013,,,,,,
5710WDB46604,,"Vellacott Close",,51.473075648,-3.17019786,,,,,,
5710AWA11311,,"Ventnor Place",,51.503836127,-3.199643459,,,,,,
5710AWA11328,,"Victoria Park",,51.482376454,-3.218435502,,,,,,
5710AWA11413,,"Victoria Park",,51.483020403,-3.218769502,,,,,,
5710AWA11327,,"Victoria Park",,51.482450614,-3.218221458,,,,,,
5710CBZ02478,,"Victoria Park 1",,51.483045725,-3.218928594,,,,,,
5710AWA11478,,"Victoria Park 3",,51.482866085,-3.218909402,,,,,,
5720AWA12382,,"Victoria Road",,51.432810058,-3.180149534,,,,,,
5720AWA12383,,"Victoria Road",,51.43260644,-3.180599878,,,,,,
5710AWA11061,,"Village Hotel",,51.524701173,-3.238203365,,,,,,
5720AWA10006,,"Vincent Close",,51.417830169,-3.24512061,,,,,,
5720AWA10405,,"Waitrose Barry",,51.413637309,-3.241972542,,,,,,
5720AWA10406,,"Waitrose Barry",,51.413926191,-3.241865334,,,,,,
5710AWA10799,,"Walker Road",,51.482216516,-3.148772451,,,,,,
5720AWA10728,,"Wallston Castle",,51.45338887,-3.264884313,,,,,,
5720AWA10750,,"Wallston Castle",,51.452653451,-3.264705671,,,,,,
5710AWA10085,,"Watchet Close",,51.514408549,-3.126408869,,,,,,
5720WDB48369,,Waterfront,,51.399502955,-3.275342846,,,,,,
5710AWA11372,,"Waterhall Road",,51.499541164,-3.245055971,,,,,,
5710AWA11400,,"Waterhall Road",,51.496453386,-3.247005337,,,,,,
5710AWA10630,,"Waterloo Gardens",,51.494295743,-3.155774478,,,,,,
5710AWA10631,,"Waterloo Gardens",,51.49462623,-3.155998916,,,,,,
5310AWB30504,,"Waterloo Road",,51.57715978,-3.004905911,,,,,,
5310AWB30505,,"Waterloo Road",,51.577043775,-3.004802335,,,,,,
5710WDB25311,,"Waterloo Road",,51.498778234,-3.158048853,,,,,,
5710WDB47292,,"Watkiss Way (Global Reach)",,51.451463776,-3.187605732,,,,,,
5710WDB21972,,"Watkiss Way (Victoria Wharf)",,51.449529016,-3.186864754,,,,,,
5710WDB21925,,"Watkiss Way (White Water Centre)",,51.44832191,-3.183523616,,,,,,
5710AWA11337,,"Waungron Park Station",,51.488333404,-3.229223899,,,,,,
5710AWA11338,,"Waungron Park Station",,51.488487058,-3.230005809,,,,,,
5710AWA11319,,"Waungron Road",,51.487749308,-3.228329602,,,,,,
5710AWA11433,,"Wellington Street",,51.479959535,-3.197303065,,,,,,
5710AWA10318,,Wellwood,,51.50976483,-3.15272202,,,,,,
5710AWA10319,,Wellwood,,51.509744443,-3.152966473,,,,,,
5710AWA11345,,"Wellwright Road",,51.489752709,-3.243853002,,,,,,
5710AWA10991,,"Welwyn Road",,51.51495459,-3.206219051,,,,,,
5710AWA10992,,"Welwyn Road",,51.515242549,-3.206197836,,,,,,
5710AWA11021,,"Wenallt Road",,51.53255056,-3.217641234,,,,,,
5710AWA11020,,"Wenallt Road",,51.5326857,-3.217616006,,,,,,
5710WDB48571,,"Wentloog Business Park",,51.506250016,-3.098539972,,,,,,
5710WDB48572,,"Wentloog Business Park",,51.505990016,-3.098899986,,,,,,
5710AWA10210,,"Wentloog Rd",,51.504909996,-3.126430039,,,,,,
5720AWA10730,,Wenvoe,,51.448957397,-3.263185444,,,,,,
5710AWA10544,,"Werfa Street",,51.498169502,-3.168650822,,,,,,
5710AWA10067,,"Wern Fawr Lane",,51.529672729,-3.103172019,,,,,,
5710AWA10326,,"Wern Goch",,51.519043312,-3.153749021,,,,,,
5710AWA10327,,"Wern Goch",,51.518937847,-3.153501338,,,,,,
5710AWA10451,,"Wern Goch East",,51.520489159,-3.151191178,,,,,,
5710AWA10452,,"Wern Goch East",,51.520615155,-3.151179943,,,,,,
5710AWA11477,,"Wessex St",,51.482634812,-3.215202072,,,,,,
5720AWA11808,,"West End Club",,51.3949625,-3.288440565,,,,,,
5710AWA10243,,"West Grove",,51.484266693,-3.168784953,,,,,,
5710AWA10244,,"West Grove",,51.484375573,-3.168686924,,,,,,
5710AWA10045,,"West Grove",,51.484061559,-3.167713974,,,,,,
5710AWA10044,,"West Grove",,51.48402474,-3.167799444,,,,,,
5720AWA11729,,"West Walk",,51.408382266,-3.280737305,,,,,,
5710AWA11422,,"Western Avenue",,51.492233164,-3.215687808,,,,,,
5710AWA11527,,"Western Cemetery",,51.474186063,-3.267504234,,,,,,
5710AWA11528,,"Western Cemetery",,51.473738466,-3.267319042,,,,,,
5710AWA11159,,"Western Drive",,51.500372485,-3.208571262,,,,,,
5710WDB48450,,"Westgate Street (KD)",,51.480389875,-3.182366442,,,,,,
5710WDB21799,,"Westgate Street (KG)",,51.479340392,-3.180263921,,,,,,
5710AWA10722,,"Westgate Street KL",,51.478895582,-3.179850959,,,,,,
5710AWA10720,,"Westgate Street KM",,51.479116844,-3.180202276,,,,,,
5710AWA10721,,"Westgate Street KN",,51.479222835,-3.180392216,,,,,,
5710WDB48395,,"Westgate Street KP",,51.479381748,-3.180684326,,,,,,
5710AWA10496,,"Westminster Crescent",,51.523059275,-3.165007047,,,,,,
5710AWA10510,,"Westminster Drive",,51.529546475,-3.164596025,,,,,,
5710AWA10509,,"Westminster Drive",,51.53010058,-3.163125286,,,,,,
5720AWA11706,,"Weycock Cross",,51.408210508,-3.298791395,,,,,,
5720AWA10754,,"Weycock Cross",,51.409036089,-3.298944198,,,,,,
5710AWA10781,,"Whitaker Road",,51.491925487,-3.13793967,,,,,,
5710AWA11066,,"Whitchurch Library",,51.516243392,-3.225017537,,,,,,
5710AWA11403,,"Whitland Close",,51.495652823,-3.241175746,,,,,,
5710AWA10568,,"Wild Gardens Rd",,51.513774311,-3.173661796,,,,,,
5710AWA11593,,"Wilfred Brook House",,51.466165698,-3.187598776,,,,,,
5710AWA11592,,"Wilfred Brook House",,51.466350541,-3.187992275,,,,,,
5710AWA10157,,"Willowbrook Drive",,51.520133106,-3.103099988,,,,,,
5710AWA10185,,"Willowbrook School",,51.521346447,-3.091627353,,,,,,
5710AWA11387,,"Willowdale Road",,51.493110743,-3.254009307,,,,,,
5710AWA10181,,"Willowdene Way",,51.526252038,-3.093979024,,,,,,
5710AWA10795,,"Willows Avenue",,51.481993412,-3.142156728,,,,,,
5710AWA10794,,"Willows Avenue",,51.482157751,-3.141901614,,,,,,
5710AWA11483,,"Wilson Road",,51.475213019,-3.25058494,,,,,,
5710AWA11567,,"Wilson Road",,51.474826631,-3.252244653,,,,,,
5720AWA12330,,"Windsor Arcade",,51.439053116,-3.174392401,,,,,,
5720AWA12332,,"Windsor Terrace",,51.438523001,-3.173085367,,,,,,
5720AWA12333,,"Windsor Terrace",,51.438659386,-3.173303236,,,,,,
5710AWA11329,,"Windway Road",,51.483742204,-3.223714152,,,,,,
5710AWA11321,,"Windway Road",,51.484006777,-3.224210899,,,,,,
5710AWA11258,,"Wingfield Rd",,51.508834683,-3.227795379,,,,,,
5720AWA11880,,"Winifred Avenue",,51.420693806,-3.274839704,,,,,,
5720AWA11884,,"Winston Road",,51.417688913,-3.280752986,,,,,,
5720AWA11883,,"Winston Road",,51.417916317,-3.280514864,,,,,,
5720AWA11881,,"Winston Square",,51.419355371,-3.277189799,,,,,,
5720AWA11882,,"Winston Square",,51.419515769,-3.277323706,,,,,,
5710AWA10120,,"Witla Court",,51.514197765,-3.1240114,,,,,,
5720AWA10005,,"Wolfe Close",,51.417478969,-3.245168589,,,,,,
5710AWA12981,,"Wolfes Castle Avenue",,51.533398809,-3.189304826,,,,,,
5710AWA10914,,"Wolfs Castle",,51.532801833,-3.191423011,,,,,,
5710AWA10913,,"Wolf's Castle",,51.532901944,-3.192189739,,,,,,
5710AWA12980,,"Wolfs Castle Avenue",,51.533019789,-3.189439118,,,,,,
5710WDB48530,,"Wood Street JA",,51.477260292,-3.179647333,,,,,,
5710AWL26194,,"Wood Street JR",,51.477006754,-3.179903007,,,,,,
5710AWA11215,,"Woodfield Avenue",,51.511551493,-3.250398327,,,,,,
5720AWA10372,,Woodlands,,51.463580739,-3.212608422,,,,,,
5720AWA10371,,Woodlands,,51.463846955,-3.210340993,,,,,,
5710AWA10684,,"Woodside Court",,51.533829055,-3.176960225,,,,,,
5710AWA10514,,"Woodville Road",,51.494671501,-3.176757872,,,,,,
5710AWA10515,,"Woodville Road",,51.494736451,-3.176557873,,,,,,
5710CBZ02491,,"Woolaston Ave",,51.513286026,-3.172136086,,,,,,
5710CBZ02492,,"Woolaston Ave",,51.513284586,-3.17228016,,,,,,
5710AWA10086,,"Worle Avenue",,51.5147615,-3.126172583,,,,,,
5710AWA10108,,"Worle Avenue",,51.515526761,-3.130745552,,,,,,
5710WDB48493,,"Wyevale Garden Centre",,51.532979533,-3.096692167,,,,,,
5710WDB48494,,"Wyevale Garden Centre",,51.532353712,-3.097268219,,,,,,
5710AWA11099,,"Wyndham Arcade JE",,51.477305095,-3.17705957,,,,,,
5710WDB48472,,"Wyndham Arcade JJ",,51.477216355,-3.176942088,,,,,,
5710AWA11434,,"Wyndham Cres",,51.481951366,-3.196851199,,,,,,
5710AWA11467,,"Wyndham Crescent",,51.481486432,-3.19747267,,,,,,
5710AWA11435,,"Wyndham Crescent",,51.48211908,-3.197158016,,,,,,
5710AWA11466,,"Wyndham Crescent",,51.481592226,-3.196798592,,,,,,
5710AWA11437,,"Wyndham Road",,51.48419024,-3.199502166,,,,,,
5720AWA11752,,"Wyndham Street",,51.408124557,-3.263893407,,,,,,
5710AWA11581,,"Wynnstay Close",,51.469640372,-3.195189425,,,,,,
5710AWA11182,,"Ynys Bridge",,51.533843655,-3.261202465,,,,,,
5710AWA11181,,"Ynys Bridge",,51.534762414,-3.261891088,,,,,,
5710CAA02556,,"Youghal Close",,51.53651677,-3.139714895,,,,,,
5710CAA02557,,"Youghal Close",,51.536355377,-3.139667608,,,,,,
5710AWA10273,,"Ysgol Bro Edern",,51.503980935,-3.154766057,,,,,,
5710AWA10272,,"Ysgol Bro Edern",,51.504037664,-3.156309156,,,,,,
5710AWA11250,,"Ysgol Glantaf",,51.50183567,-3.2269939,,,,,,
5710AWA11636,,"Ystrad Street",,51.467002056,-3.179572882,,,,,,
